processo_numero,solicitacao_data,solicitacao_hora,solicitacao_descricao,solicitacao_bairro,solicitacao_localidade,solicitacao_endereco,processo_ocorrencia,confirmado,latitude,longitude,cond,em_recife,rain_hour,rain_day,altitude,ground_type,danger_level
8058622022,2022-05-31 12:11:00,12:11,"USUÁRIA INFORMA QUE UMA ARVORE ESTA COM RISCO DE QUEDA E A OUTRA CAIU POREM, NÃO ATINGIU A CASA.",IBURA,IBURA DE BAIXO,RUA RIO PIRACICABA N.21,Tombamento de Arvores,0,-8.1116545,-34.9456241,False,1,6.1,21.1,22.0,LVd2,Baixa
8076262219,2019-06-17 07:28:00,07:28,"USUÁRIO INFORMA QUE O SEU VIZINHO HAVIA COLOCADO UMA BICA VOLTADA PARA A BARREIRA E COM AS GRANDES CHUVAS A MESMA DESLIZOU DEIXANDO A BASE DO MURO COM UM GRANDE BURACO, AMEAÇANDO CAIR A QUALQUER MOMENTO E ATINGIR AS CASAS.",MACAXEIRA,BURITY,"RUA RANUSIA ALVES RODRIGUES, 752",Imoveis com Danos/Risco,0,-8.0094146,-34.9303986,False,1,2.0,61.0,43.0,A2,Média
8030270418,2018-03-09 09:02:00,09:02,USUÁRIO SOLICITA VISTORIA NO SEU IMÓVEL POIS O MESMO TEM MUITA INFILTRAÇÃO E ALAGA SEMPRE QUE CHOVE.DESEJA ORIENTAÇÃO DA DEFESA CIVIL PARA EVITAR ACIDENTES,VASCO DA GAMA,ALTO NOSSA SRª DE FATIMA,"RUA ALTO NOSSA SENHORA DE FÁTIMA, 2644",Imoveis Alagados,0,-8.011475,-34.9164672,False,1,0.0,0.0,68.0,A2,Média
8002587016,2016-01-22 10:55:00,10:55,"usuario solicita de uma vistoria no muro de arrimo, esta havendo uma filtraçao nesse muro",VASCO DA GAMA,ALTO DAS PEDRINHAS,rua senador milton campos n 286,Muro com Danos,0,-8.0142691,-34.9241833,False,1,0.2,10.0,72.0,A2,Média
8023700016,2016-05-09 17:30:00,17:30,USUARIA IONFORMA QUE O CANAL DO LOCAL CITADO TRANSBORDOU ENTRANDO A AGUA NAS CASAS ÃO REDOR DO LOCAL CITADO PEDE URGENCIA NA SOLICITAÇÃO PARA EQUIPE COMPARECER URGENTIMENTE PÓS A SIATUAÇÃO ESTA DE RISCO.,TORRE,TORRE,RUA SÃO BENTO DO NORTE N 14,Imoveis Alagados,0,-8.045984,-34.9181892,False,1,5.6,133.0,11.0,A2,Baixa
8092256319,2019-07-25 14:50:00,14:50,"A BARREIRA DESLIZOU E JÁ ATINGIU A RESIDENCIA DA SENHORA LINDINALVA NA PARTE DA COZINHA, A MESMA ESTÁ COM MEDO POIS SOBROU UMA PARTE QUE PODE DESLIZAR, POSSUI MANGUEIRA E PÉ DE AROEIRA. SOLICITA COLOCAÇÃO DE LONA E CAPINAÇÃO. CHEGANDO AO LOCAL PROCURAR POR LINDINALVA",DOIS UNIDOS,ALTO DO MARACANA,PRIMEIRA TRAVESSA GORANDIA N27,Deslizamentos de Barreiras,1,-8.0044956,-34.9066946,False,1,4.4,10.0,35.0,URBANO,Alta
8067757617,2017-07-27 08:46:00,08:46,USUÁRIO INFORMA QUE HÁ UM PRIMEIRO ANDAR COM RISCO DE QUEDA POIS ESTÁ COM VÁRIAS RACHADURAS.,BRASILIA TEIMOSA,BRASILIA TEIMOSA,RUA DAGOBERTO PIRES,Imoveis com Danos/Risco,0,-8.0862739,-34.8795352,False,1,1.0,-1.0,8.0,AGUA,Baixa
8082230321,2021-09-14 09:48:00,09:48,UMA ARVORE CAIU ENCIMA DO PE DE COCO A UM MES  E FICOU MAIS RECLINADO  O COQUEIRO PARA A REDE DE FIOS DA CELPE. COQUEIRO ACIMA DA BARREIRA. FAVOR VERIFICAR,VARZEA,JD. PETROPOLIS,RUA HUGO NAPOLEAO N 65,Arvores em Risco,0,-8.0346353,-34.9603359,False,1,0.0,8.0,24.0,A2,Baixa
8028673622,2022-03-23 13:11:00,13:11,USUÁRIA SOLICITA ERRADICACAO DE ARVORE EM BARREIRA COM RISCO DE QUEDA.,PASSARINHO,ALTO SO NOS DOIS,RUA ALTO SO NOS DOIS N 4,Arvores em Risco,0,-7.988553550000001,-34.92232574738948,False,1,1.5,11.5,30.0,LVd4,Baixa
8071772816,2016-11-23 09:41:00,09:41,"USUÁRIA INFORMA QUE UM EDIFÍCIO ESTA COM A COLUNA CAINDO,COM  RACHADURAS.",SANTO ANTNIO,SANTO ANTNIO,RUA FREI  CANECA N 59,Imoveis com Danos/Risco,0,-8.0650497,-34.88089118210441,False,1,0.0,0.0,12.0,URBANO,Baixa
8075603022,2022-07-04 13:38:00,13:38,"VISTORIAUSUARIA SOLICITA A VISTORIA NO LOCAL POIS A CASA DELA SOFREU COM O ALAGAMENTO , ELA PERDEU TODOS OS MOVEIS.",IBURA,LAGOA ENCANTADA,UA DOUTOR CESAR MONTEZUMA,Alagamentos,0,-8.116954549999999,-34.95209736849097,False,1,0.7,26.1,69.0,LVd2,Média
8021612119,2019-02-21 09:18:00,09:18,USUARIA SOLICITA DE URGENCIA DA LONA PARA BARREIRA,NOVA DESCOBERTA,CGO. DO ARCANJO,RUA   NACIP RAYDAN n 97,Deslizamentos de Barreiras,1,-8.0049279,-34.9268142,False,1,0.0,0.0,63.0,LVd4,Baixa
8058964217,2017-07-02 07:38:00,07:38,Deslizamento de barreira em duas casa moradores estão presos dentro de casa sem acesso pra saida *muro caiu *urgencia,DOIS IRMAOS,SITIO DOS PINTOS,rua vereador petrus camara  70,Imoveis com Danos/Risco,0,-8.0141058,-34.9600504,False,1,0.0,1.0,18.0,A2,Média
8064235522,2022-06-08 10:13:00,10:13,"USUARIO INFORMA ARVORE EM RISCO DE CAIR SOBRE SUA CASA SOLICITA ERRADICAR, PRECISA DE LONA PLASTICA, MEDIO PORTE. SOLICITA VISTORIA.",NOVA DESCOBERTA,CGO. DA AREIA,"RUA NOVA REZENDE, 40",Arvores em Risco,0,-8.0007319,-34.9240673,False,1,0.0,0.1,32.0,LVd4,Baixa
8080256319,2019-06-26 09:30:00,09:30,USUÁRIA INFORMA QUE ABRIU UM BURACO NA CALÇADA DA CASA E DEVIDO A ESSE BURACO ABRIU UMA RACHADURA ENORME NO QUARTO. COM ABERTURA LARGA E DA PARA VER O OUTRO.,DOIS UNIDOS,DOIS UNIDOS,RUA MAMEDE COELHO N 46,Imoveis com Danos/Risco,0,-8.0039982,-34.9025626,False,1,,,25.0,LVd4,Baixa
8028894418,2018-03-06 08:47:00,08:47,PÉ DE COCO ESTÁ DANIFICANDO A ESTRUTURA DO MURO DE MODO QUE E APRESENTA RACHADURAS E OFERECE RISCO TAMBÉM A UM POSTE,NOVA DESCOBERTA,CGO. DO EUCALIPTO,"RUA ANTONIO TERTULIANO C DE OLIVEIRA, 294",Muro com Danos,0,-8.0069178,-34.9273157,False,1,2.4,14.0,47.0,LVd4,Baixa
8011158514,2014-07-14 09:21:00,09:21,"USUÁRIA INFORMA QUE A BARREIRA DE SUA CASA DESLIZOU. URGENTE, POIS ESTA COM RISCO DE DESLIZAR NOVAMENTE.",LINHA DO TIRO,CGO. DO TIRO,"RUA PROFESSOR JOSE AMARINO DOS REIS, N°163",Deslizamentos de Barreiras,1,-8.0105195,-34.9073316,False,1,0.0,5.0,36.0,URBANO,Baixa
8062970022,2022-06-06 21:24:00,21:24,"solicita lona, precisa capinar.informa que caiu um pedaco da barreira, de grande porteinforma que o barro que caiu esta proximo da sua casa",NOVA DESCOBERTA,CGO. DA AREIA,"rua corrego do leoncio, 9",Deslizamentos de Barreiras,1,-8.0026164,-34.9278948,False,1,0.3,5.1,45.0,LVd4,Média
8073796622,2022-06-29 17:32:00,17:32,SOLICITA VISTORIA EM SUA CASA. DEVIDO AS ULTIMAS CHUVAS FORMOU/SE UMA CRATERA EM FRENTE A SUA CASA QUE ESTÁ QUASE ENGOLINDO O MURO DA CASA A MESMA INFORMA QUE DÁ PRA VER O ALICERCE DA CASA.,IBURA,LAGOA ENCANTADA,RUA DR PAULO DE BIASE 56,Imoveis com Danos/Risco,0,-8.1216495,-34.9471521,False,1,0.0,0.6,73.0,LVd2,Baixa
8077398519,2019-06-18 06:22:00,06:22,USUÁRIO INFORMA QUE SUA BARREIRA ESTÁ DESLIZANDO E ATINGINDO A PARTE POSTERIOR DA RESIDÊNCIA. SOLICITA COMPARECIMENTO PARA COLOCAR LONA E TOMAR PROVIDÊNCIAS PARA QUE NÃO OCORRAM ACIDENTES.NECESSITA DE CAPINAÇÃO.,DOIS UNIDOS,ALTO DO AGAVE,"RUA JOAO CAVALCANTE PETRIBU, 11",Imoveis com Danos/Risco,0,-7.9920682,-34.9179686,False,1,0.6,29.0,24.0,LVd4,Baixa
8082659120,2020-11-25 09:11:00,09:11,Usuário informa que o prédio esta apresentado  rachaduras e filtrações  o mesmo fala que esta tendo uma construção no térreo..,SANCHO,SANCHO,AV LIBERDADE n 1042,Imoveis com Danos/Risco,0,-8.0815297,-34.9650829,False,1,0.0,2.0,23.0,PV1,Baixa
8018968015,2015-06-30 07:33:00,07:33,/USUARIO SOLICITA VISTORIA E COLOCAÇÃO DE LONA EM BARREIRA COM RISCO POIS OCORREU DESLIZAMENTO. O MESMO PEDE URGENCIA,MACAXEIRA,MACAXEIRA,"1TRV FRANCISCO PASSOS, 101",Deslizamentos de Barreiras,1,-8.0118867,-34.9311631,False,1,0.0,8.0,31.0,A2,Baixa
8031027621,2021-04-11 16:43:00,16:43,"SOLICITA LONAS,  VISTORIA DE UMA BARREIRA E UM PÉ DE BAMBU MUITO GRANDE QUE ESTÁ EM CIMA",NOVA DESCOBERTA,CGO. DA AREIA,"RUA CÓRREGO DA AREIA, N 715",Arvores em Risco,0,-7.9999358,-34.9268208,False,1,2.0,146.0,66.0,LVd4,Média
8010643714,2014-07-07 14:19:00,14:19,usuario solicita vistoria em muro de alvenaria o mesmo inf que muro foi construido sem sustentaçao teme acidentes pois muro mede mais de 3 metros,IBURA,VILA DOS MILAGRES,rua santo heleno n°396,Muro com Danos,0,-8.1120823,-34.9471792,False,1,0.4,1.0,39.0,LVd2,Média
8007870216,2016-02-29 08:46:00,08:46,USUÁRIA SOLICITA ERRADICAÇÃO DE ARVORES EM BARREIRA. A MESMA ESTA COM RISCOS DE QUEDA E TEM CASAS NO LOCAL.,DOIS UNIDOS,ALTO DO ROSARIO,"6 TRV COMPOSITOR INALDO MENDONÇA, N 220.",Arvores em Risco,0,-8.0002686,-34.9162442,False,1,0.0,0.0,36.0,LVd4,Média
8062468222,2022-06-06 11:52:00,11:52,USUÁRIO SOLICITA A VISTORIA NA RESIDENCIA JÁ QUE ESTÁ COM GRANDES RACHADURAS NO LOCAL DEVIDO AS CHUVAS!,DOIS UNIDOS,ALTO DO ROSARIO,RUA COMPOSITOR NIVALDO MENDONÇA N.45 A,Imoveis com Danos/Risco,0,-7.988553550000001,-34.92232574738948,False,1,0.2,5.1,30.0,LVd4,Baixa
8065953922,2022-06-10 11:57:00,11:57,USUÁRIA INFORMA QUE A CASA FOI ALAGADA E GOSTARIA DA VISTORIA DESSA RESIDENCIA PARA VER SE E POSSÍVEL A VOLTA DELA PARA A CASA!,DOIS UNIDOS,DOIS UNIDOS,RIO MORNO N.63,Imoveis Alagados,0,-8.0072114,-34.9070741,False,1,0.0,4.1,15.0,URBANO,Baixa
8023998016,2016-05-10 10:45:00,10:45,usuario solicita de lona para barreira,MACAXEIRA,VILA DA UNIAO,rua campo da uniao n 195,Deslizamentos de Barreiras,1,-8.0057876,-34.9324787,False,1,0.0,15.0,50.0,LVd4,Média
8092651019,2019-07-26 10:00:00,10:00,USUÁRIO SOLICITA COLOCAR LONAS NA PARTE DA BARREIRA QUE A EQUIPE NAO TERMINOU E VISTORIAR UMA ARVORE QUE ESTA NO TERRENO DO VIZINHO ACIMA DA BARREIRA ESTA PENDENDO PARA A CASA DO USUARIO E O POSTO DE SAUDE. AO LADO DO PÓSTO DE SAUDE TEM DUAS ARVORES TAMBEM QUE ESTA NO PROLONGAMENTO DA BARREIRA E ESTA MUITO ALTA.,LINHA DO TIRO,ALTO DA JAQUEIRA,RUA CORREGO DA JAQUEIRA N 134,Arvores em Risco,0,-8.0078701,-34.9014093,False,1,0.6,11.0,28.0,URBANO,Baixa
8039687521,2021-05-05 09:50:00,09:50,"USUÁRIO SOLICITA VISTORIA, POIS A BARREIRA DESLIZOU E O BARRO ESTÁ ENCOSTADO NA PAREDE DO QUARTO",DOIS UNIDOS,ALTO DO MARACANA,"RUA ÁGUA AZUL, 44",Deslizamentos de Barreiras,1,-8.0046357,-34.9055084,False,1,0.0,38.0,32.0,URBANO,Alta
8049186719,2019-04-30 08:56:00,08:56,USUARIA SOLICITA DE URGENCIA DA LONA PARA BARREIRA,IBURA,IBURA DE BAIXO,rua francisco beltrao n 160,Deslizamentos de Barreiras,1,-8.1194303,-34.9412388,False,1,0.0,29.0,47.0,LVd2,Média
8090741119,2019-07-24 09:54:00,09:54,"A BARREIRA DESLIZOU TEM UM PRIMEIRO ANDAR CAIU, ESTA COM ESTALOS E TEM OUTRO PRIMEIRO ANDAR E ARVORES ESTA ENCIMA DA CASA E COM CASAS ACIMA DA BARREIRA PARA CAIR ENCIMA DA USUÁRIA E OUTRO PRIMEIRO ANDAR PRESTES A CAIR. URGENCIA SEM VITIMAS",MACAXEIRA,VILA DA UNIAO,RUA RANUSIA ALVES RODRIGUES N 175,Arvores em Risco,0,-8.0094146,-34.9303986,False,1,4.0,84.0,43.0,A2,Média
8003932316,2016-02-01 08:24:00,08:24,USUARIA INF QUE EXISTE UMA ARVORE NA BARREIRA COM RISCO DE QUEDA. A MESMA PEDE URGENCIA POIS A ARVORE ESTA PROX AO QUARTO DE SUA FILHA,IBURA,VILA DOS MILAGRES,"3TR DES  PEDRO RIBEIRO MALTA, 492",Arvores em Risco,0,-8.107540199999999,-34.949931520289695,False,1,0.0,6.0,35.0,PV1,Média
8065174022,2022-06-09 13:10:00,13:10,"USUÁRIO INFORMA QUE A RESIDENCIA ESTÁ COM A RACHADURA NA BARREIRA DE CIMA ABAIXO E GOSTARIA DE ENTRA NO PROGRAMA PARCERIA PARA UM MURO DE ARRIMO, E AINDA TEM A ÁGUA DO VIZINHO QUE ESTA ATINGINDO A RESIDENCIA DO MORADOR E A RACHADURA ESTÁ AUMENTO MAIS!USUÁRIO INFORMA QUE TEM UMA ÁRVORE EM CIMA DA BARREIRA QUE ESTÁ COM RISCO!",DOIS UNIDOS,ALTO DO ROSARIO,RUA COMPOSITOR INALDO MENDONÇA N.45 A,Arvores em Risco,0,-7.9985791,-34.9163868,False,1,0.0,2.0,42.0,LVd4,Média
8038326216,2016-06-27 11:25:00,11:25,usuaria deseja uma vistoria na casa do seu pai gabriel nascimento da silva pra que seja refeito o muro.,VASCO DA GAMA,VASCO DA GAMA,rua supia,Imoveis com Danos/Risco,0,-8.011396,-34.9205522,False,1,0.0,8.0,40.0,A2,Baixa
8011395515,2015-04-16 16:22:00,16:22,"arvore em risco devido ao um pé de mangá de grande porte que está na barreira, verificar pois teme de cair a qualquer momento.",IBURA,LAGOA ENCANTADA,"Rua Doutor Paulo de Biase, nº 56",Arvores em Risco,0,-8.1216495,-34.9471521,False,1,0.0,3.0,73.0,LVd2,Baixa
8066382522,2022-06-11 11:03:00,11:03,CASA COM RACHADURAS E COM ESTALOS NA ESTRUTURA,TORROES,TORROES,"Rua travessa guarita, n 45",Imoveis com Danos/Risco,0,-8.0618637,-34.9360457,False,1,1.4,22.4,10.0,HP,Baixa
8052487422,2022-05-24 21:57:00,21:57,"solicita vistoria, informa que casa esta rachada(muro junto a laje) e devido a chuva esta aumentando a rachadura, esta quase cabendo uma mao (proporcao), e essa casa esta na barreira. agua infiltrando na barreirainforma que a barreira ja tem lona",JORDAO,JORDAO BAIXO,rua elizarda,Deslizamentos de Barreiras,1,-8.1312646,-34.9374056,False,1,2.0,26.9,34.0,LVd2,Média
8053470822,2022-05-25 13:59:00,13:59,"USUÁRIO INFORMA QUE TEM UMA CONSTRUÇÃO NO LOCAL, COM RISCOS AI ACABOU CORRENDO UM DESLIZAMENTO E ACABOU ATINGINDO A CASA DA USUARIA E AINDA ESTA COM PEQUENOS DESLIZAMENTOS!",NOVA DESCOBERTA,CGO. DA AREIA,RUA PAPELEIRA N.09,Deslizamentos de Barreiras,1,-7.9999177,-34.9269306,False,1,0.2,20.7,66.0,LVd4,Média
8025746816,2016-05-16 10:23:00,10:23,"usuaria informa que a barreira deslizou , solicita de urgencia da vistoria",IBURA,ALTO DA BELA VISTA,RUA BARAO DE GRAJAU n 183,Deslizamentos de Barreiras,1,-8.1224062,-34.9379695,False,1,0.0,13.0,41.0,LVd2,Média
8086893917,2017-09-23 16:41:00,16:41,"USUÁRIO INFORMA QUE ARVORE, LOCALIZADA NA BARREIRA, TOMBOU ATINGINDO O TELHADO DE SUA RESIDENCIA. INFORMA QUE EXISTEM OUTRAS ARVORES NESSA BARREIRA E SOLICITA A VISTORIA E RETIRADA DAS MESMAS.",IBURA,UR 02,"Rua Samuel Morse, N 110",Arvores em Risco,0,-8.1168015,-34.9556858,False,1,0.0,1.0,83.0,PV1,Baixa
8024624616,2016-05-11 12:48:00,12:48,usuaria solicita de uma vistoria no muro de arrimo,IBURA,UR 05,Travessa Frei Loureiro  n 58,Muro com Danos,0,-8.1317444,-34.9531773,False,1,0.0,13.0,41.0,LVd2,Média
8006334115,2015-03-06 08:08:00,08:08,"usuaria relata que ja caiu dois muros,o dela e o da vizinha,a mesma esta gravida no local e tem um poste que esta quase caindo.",JORDAO,JORDAO ALTO,rua elesbao veloso nº 38,Postes em Risco,0,-8.129395,-34.9366238,False,1,0.0,59.0,43.0,LVd2,Baixa
8027582722,2022-03-22 09:29:00,09:29,USUARIO SOLICITA COLOCAÇÃO DE LONA PLASTICA.PRECISA CAPINAÇÃO. INFORMA QUE TEM DUAS  ARVORES NA BARREIRA PRECISA CORTAR.,JORDAO,JORDAO BAIXO,"RUA ALBERTO LUNDRGUEN, 38 B",Arvores em Risco,0,-8.1312646,-34.9374056,False,1,0.4,20.9,34.0,LVd2,Média
8067406522,2022-06-14 11:11:00,11:11,A MESMA INFORMA QUE A CASA DA SUA MAE ESTA COM PAREDE RACHANDO E A CERCA DESABANDO E O VIZINHO COLOCOU UMA CAIDADE TALHA PARA AO QUINTAL DA SUA MAE,GUABIRABA,CGO. DO MARRECO,2 SUBIDA DO CORREGO DO MARRECO N.175,Imoveis com Danos/Risco,0,-7.9967245,-34.9374488,False,1,0.0,0.7,59.0,LVd4,Média
8060258221,2021-07-08 14:13:00,14:13,"USUÁRIO SOLICITA VISTORIA EM ÁRVORE QUE ESTÁ OFERECENDO RISCOS A SUA CASA.SEGUNDO A SOLICITANTE, ELA MORA EM CIMA DE UMA BARREIRA QUE JÁ DESLIZOU ANTERIORMENTE E QUE A ÁRVORE PODE CAIR EM SUA CASA.",JORDAO,JORDAO ALTO,"RUA VERDEJANTE, 16 B",Imoveis com Danos/Risco,0,-8.1326383,-34.9420401,False,1,0.0,0.0,70.0,LVd2,Média
8018434615,2015-06-29 06:54:00,06:54,/USUARIO SOLICITA VISTORIA  EM BARREIRA COM RISCO POIS OCORREU DESLIZAMENTO. O MESMO PEDE URGENCIA,TOTO,TOTO,"RUA   UTINGA,180",Deslizamentos de Barreiras,1,-8.0809081,-34.9707649,False,1,4.2,92.0,26.0,PV1,Baixa
8017992515,2015-06-25 11:05:00,11:05,SOLICITA/SE COLOCAÇÃO DA LONA COM BREVIDADE.,GUABIRABA,CGO. JOSE IDALINO,RUA GUIDO BORNER,Deslizamentos de Barreiras,1,-7.9962875,-34.9336803,False,1,5.0,39.0,66.0,LVd4,Média
8030670221,2021-04-11 02:02:00,02:02,USUÁRIA SOLICITA DE LONA PARA BARREIRA QUE ESTA DESLIZANDO A MESMA ESTA COM BASTANTE MEDO. . SOLICITA DE CAPINAÇÃO . PEDE URGÊNCIA DA EQUIPE NO LOCAL.,NOVA DESCOBERTA,CGO. PEDRO DA COCADA,RUA PLINIO COELHO N 421,Deslizamentos de Barreiras,1,-7.9969368,-34.9281029,False,1,0.6,146.0,70.0,LVd4,Baixa
8065531017,2017-07-19 16:54:00,16:54,BARREIRA AO  LADO DE CASA  E NO TOPO DA BARREIRA ESTÃO CONSTRUINDO CASAS. SOLICITA VISTORIA,JORDAO,JORDAO BAIXO,RUA VISCONDE DO AZUARA,Imoveis com Danos/Risco,0,-8.1312646,-34.9374056,False,1,0.0,3.0,34.0,LVd2,Média
8001305116,2016-01-13 13:38:00,13:38,"USUÁRIA SOLICITA UMA VISTORIA EM SUA CASA, A MESMA INFORMA QUE ESTÁ COM RACHADURAS E ESTÁ COM MEDO. EXISTE UMA BARREIRA NA LATERAL DA CASA.",DOIS UNIDOS,ALTO DO MARACANA,RUA ALMOFALA N 150,Imoveis com Danos/Risco,0,-8.0017611,-34.9053146,False,1,0.0,0.0,28.0,LVd4,Média
8054159820,2020-07-27 07:54:00,07:54,USUÁRIO INFORMA QUE HÁ UM VAZAMENTO NO MURO DE ARRIMO E QUE ESTÁ COLOCANDO EM RISCO A CASA DA SOLICITANTE (MARIA VALDEMIRA). FAVOR VERIFICAR.,BEBERIBE,PORTO DA MADEIRA,"CORREGO CENTRAL, 140",Imoveis com Danos/Risco,0,-8.0078596,-34.8975698,False,1,0.0,2.0,46.0,URBANO,Média
8031039421,2021-04-11 17:34:00,17:34,SOLICITA VISTORIA DA BARREIRA QUE DESLIZOU.,PASSARINHO,ALTO DA BICA,"RUA 4  TRAVESSA CÓRREGO DO CARROCEIRO, N 17",Deslizamentos de Barreiras,1,-7.9840705,-34.9282904,False,1,0.2,146.0,41.0,LVd4,Alta
8078740220,2020-11-09 16:30:00,16:30,INFORMA QUE HOUVE INCÊNDIO E UNS PAREDES CAÍRAM MAS NÃO HOUVE VITIMAS SENDO ASSIM PEDI O APOIO DA DEFESA CIVIL NO LOCAL PARA VERIFICAR SE HA RISCO DE DESABAMENTO PROTOCOLO B1455643 SARGENTO ANDRADE BOMBEIROS DESPACHANTE SIODES,IMBIRIBEIRA,IMBIRIBEIRA,RUA FRANCISCO CORREIA DE MORAES N 125,Incendios,0,-8.1256534,-34.9124883,False,1,0.0,26.0,9.0,HP,Baixa
8066478617,2017-07-21 22:03:00,22:03,"TELEFONE 2: 8416/3739. USUÁRIA INFORMA QUE A BARREIRA DA FRENTE DESLIZOU, A MESMA INFORMA QUE A MAIS DE 1 MÊS QUE PEDE LONA PARA ELA, MAS AINDA NÃO FOI ATENDIDA. PEDE URGÊNCIA NO ATENDIMENTO.",DOIS IRMAOS,SITIO DOS PINTOS,"RUA LUIZ ANTONIO DE ARAUJO, N 227",Deslizamentos de Barreiras,1,-8.0110993,-34.9585766,False,1,0.0,-1.0,18.0,A2,Média
8020935915,2015-07-09 14:32:00,14:32,"a usuaria informa que no local se encontra um muro com muitas rachaduras que esta com risco de cair a qualquer momento,favor verificar com urgencia,riscos de acidentes.",ALTO JOSE DO PINHO,ALTO JOSE DO PINHO,rua valeriano lobo,Muro com Danos,0,-8.0231049,-34.9096692,False,1,0.0,0.0,23.0,URBANO,Média
8038565915,2015-12-17 08:59:00,08:59,"há um cano de 75 da compeça que passa ao lado do seu imovel, e está lhe ocasionando danos ao seu imovel como a cedenção do pizo, rachaduras nas paredes e dentre outros, o mesmo solicita a vistoria para verificar se há algum risco em seu imovel.",IPUTINGA,IPUTINGA,"rua sucupira, n 275",Imoveis com Danos/Risco,0,-8.0280742,-34.9370894,False,1,0.0,0.0,8.0,A2,Baixa
8048168718,2018-04-13 17:09:00,17:09,"USUÁRIA SOLICITA VISTORIA NA LAGE DE SUA RESIDENCIA E NO MURO DE ARRIMO QUE ESTÁ COM RACHADURAS E INFILTRAÇÃO , DEVIDO A UMA CONSTRUÇÃO QUE ESTÃO FAZENDO SOBRE O MESMO E OFERECENDO RISCO  PARA AS RESIDENCIAS PRÓXIMAS. PEDE URGÊNCIA.",DOIS IRMAOS,SITIO SAO BRAS,"RUA SITIO SÃO BRÁS,N 164",Muro com Danos,0,-8.0193199,-34.9569703,False,1,0.0,23.0,20.0,A2,Baixa
8023640816,2016-05-09 16:21:00,16:21,JA HOUVE DESLIZAMENTO PARCIAL DA BARREIRA.,DOIS UNIDOS,ALTO DO MARACANA,"PRIMEIRA TRAVESSA JOSÉ MENEZES DE MEIRA FILHO, 120",Deslizamentos de Barreiras,1,-8.0044956,-34.9066946,False,1,15.8,133.0,35.0,URBANO,Alta
8043113021,2021-05-13 16:23:00,16:23,DESLIZAMENTO DE BARREIRA NÃO CHEGOU A ATINGIR A CASA DO USUÁRIO MAIS PEDAÇOS DELA ESTÁ SE DESPRENDENDO COM FREQUÊNCIA.,GUABIRABA,CGO. JOSE IDALINO,RUA JEQUIRI N 89,Deslizamentos de Barreiras,1,-7.9930052,-34.9322037,False,1,6.2,146.0,67.0,LVd4,Média
8077002419,2019-06-17 14:57:00,14:57,"usuária informa que a barreira caiu, deseja lona",IBURA,LAGOA ENCANTADA,rua santa joana n 479,Deslizamentos de Barreiras,1,-8.1279729,-34.9515488,False,1,6.0,61.0,38.0,LVd2,Média
8031367317,2017-04-16 09:29:00,09:29,USUARIA SOLICITA REPOSIÇÃO DE LONA PLASTIAS NA BARREIRA POIS A MESMA INFORMA QUE SÃO DUAS BARREIRAS E SOLICITA URGENCIA POSSUI RISCO DE DESLIZAMENTO NO LOCAL,NOVA DESCOBERTA,CGO. DA JOSELIA,"AV. JOSELIA, 1098",Deslizamentos de Barreiras,1,-8.004216,-34.9280182,False,1,0.0,2.0,63.0,LVd4,Alta
8058483417,2017-06-29 16:41:00,16:41,"USUARIO INFORMA DESLIZAMENTO DE BARREIRA DURANTE A MADRUGADA,EXISTE UMA VALA EM CIMA DA BARREIRA, POSIU MATO E LIXO",LINHA DO TIRO,CGO. DO TIRO,RUA PROFESSOR JOSE AMARINHO DOS REIS,Deslizamentos de Barreiras,1,-8.0080906,-34.9078692,False,1,0.0,48.0,15.0,URBANO,Baixa
8031062016,2016-05-31 12:44:00,12:44,USUARIO DESEJA A COLOCAÇAO DE LONA NA BARREIRA,DOIS IRMAOS,SITIO SAO BRAS,RUA BAROA DE CAPIBARIBE,Imoveis com Danos/Risco,0,-8.0193199,-34.9569703,False,1,0.0,1.0,20.0,A2,Baixa
8059709222,2022-06-01 13:02:00,13:02,"A VIZINHA CAVOU O PÉ DE MURO  E COM A CHUVA PIOROU. A COLUNA ESTÁ TRONCHA, DESCOBERTA SÃO UMAS SEIS COLUNAS E ESTÁ INCLINANDO. O MURO TEM 10 M DE FRENTE, ESTÁ RACHADO E FICA NA FRENTE DA CASA DONA LUCICLEIDE  SOLICITA A VISTORIA.",JORDAO,JORDAO BAIXO,RUA PROFESSORA ACELINA CAMARA,Muro com Danos,0,-8.1312646,-34.9374056,False,1,0.2,2.7,34.0,LVd2,Média
8089220119,2019-07-22 12:38:00,12:38,"sra. solicita a vistoria em um quartinho que esta com danos na paredes, onde apresenta grandes rachaduras.",BEBERIBE,PORTO DA MADEIRA,av vereador otarcilio de azevedo,Imoveis com Danos/Risco,0,-8.0070244,-34.8883412,False,1,5.4,48.0,12.0,LVd4,Baixa
8039461917,2017-05-10 11:51:00,11:51,"USUÁRIA SOLICITA A VISTORIA DA BARREIRA, POIS A MESMA ONTEM TEVE UM PEQUENO DESLIZAMENTO E O QUINTAL ESTA SOTERRADO COM O BARRO, POIS O VIZINHO DESVIOU O ESCOAMENTO DA ÁGUA DA CHUVA DA CANALETA.",IBURA,UR 03,RUA DA PAZ N 57 A,Deslizamentos de Barreiras,1,-8.1135394,-34.9460681,False,1,0.6,2.0,52.0,LVd2,Média
8022460420,2020-02-17 13:39:00,13:39,usuária solicita vistoria no apartamento modelo que é todo de gesso e está mofado,TEJIPIO,TEJIPIO,Rua Pajussara 	  n 110,Imoveis com Danos/Risco,0,-8.0869918,-34.9494231,False,1,0.0,4.0,15.0,PV1,Baixa
8014703718,2018-02-01 11:02:00,11:02,DESEJA VISTORIA POIS FIZERAM UMA LAJE NA BARREIRA E A ÁGUA QUE CAI DA BARREIRA ESTA CAUSANDO TRANSTORNOS E BARREIRA TEM RISCO DE QUEDA .A INFILTRAÇÃO ESTA DANIFICANDO TODO IGREJA,AGUA FRIA,CGO. DO DEODATO,TRAVESSA    EPITÁCIO PESSOA 98,Imoveis com Danos/Risco,0,-8.0121353,-34.902964,False,1,0.0,0.0,52.0,URBANO,Baixa
8018233214,2014-10-17 13:16:00,13:16,USUÁRIA SOLICITA VISTORIA EM IMÓVEL COM RACHADURA E COM RISCO.,MONTEIRO,MONTEIRO,RUA EUCLIDES TRAJANO N. 62,Imoveis com Danos/Risco,0,-8.0263217,-34.9287912,False,1,0.0,5.0,29.0,A2,Baixa
8035916117,2017-05-02 13:42:00,13:42,USUARIA SOLICITA UMA VISTORIA EM SUA RESIDENCIA POIS O SEU VIZINHO QUE CONSTRUIU O PRIMEIRO E AGUA DO TELHADO ESTA CAINDO NA PAREDE DE SUA CASA E A MESMA FICA MUITO TEMPO ÚMIDA E O REBOCO DESSA PAREDE ESTA CAINDO E SOLICITA URGENCIA,CAJUEIRO,ALTO DO MIRAMAR,"AVENIDA NOVA DO FUNDÃO, 92 A",Imoveis com Danos/Risco,0,-8.0150497,-34.8860646,False,1,3.6,39.0,36.0,URBANO,Média
8062905521,2021-07-19 14:41:00,14:41,USUÁRIA INFORMA QUE TELHADO DA RESIDENCIA DESABOU E PAREDE ESTA TODA RACHADAS.,VASCO DA GAMA,VASCO DA GAMA,RUA VASCO DA GAMA N 1036,Desabamento Parcial Imoveis,0,-8.0207332,-34.9217363,False,1,9.2,26.0,19.0,A2,Baixa
8059742118,2018-05-08 08:47:00,08:47,USUÁRIO INFORMA QUE HÁ UMA INFILTRAÇÃO NO MURO DE ARRIMO QUE ESTÁ DANIFICANDO A BARREIRA E PONDO EM RISCO AS VIDAS DOS MORADORES DO LOCAL.SOLICITANTE PEDE VISTORIA PARA VERIFICAR O GRAU DE RISCO DA BARREIRA E ORIENTAR SOBRE O PROCEDIMENTO QUE DEVE SER SEGUIDO.,AGUA FRIA,CGO. DO DEODATO,"TRV EPITACIO PESSOA, 35",Muro com Danos,0,-8.0121353,-34.902964,False,1,0.0,0.0,52.0,URBANO,Baixa
8019272620,2020-02-11 14:16:00,14:16,"SR SOLICITA VISTORIA EM UMA CONSTRUÇAO QUE ESTA SENDO FEITA NA BARREIRA, E SOLICITA A PARCERIA PARA CONSTRUÇAO DESSA BARREIRA",MACAXEIRA,MACAXEIRA,RUA   RANUSIA ALVES RODRIGUES,Imoveis com Danos/Risco,0,-8.0094146,-34.9303986,False,1,0.0,1.0,43.0,A2,Média
8013557414,2014-08-19 16:42:00,16:42,"MORADORA INFORMA QUE DEVIDO UMA CANALETA/GALERIA QUEBRADA, ESTÁ SAINDO MUITA AGUA DE DENTRO, JORRANDO TUDO PARA AS CASAS, E POR ISSO DUAS CASAS JA FORAM DANIFICADAS, ONDE PARTE DE PAREDES DESABOU E OUTRAS ESTÃO EM RISCO TAMBEM. MAS O MAIS PERIGOSO ESTÁ O POSTE QUE ESTA TOTALMENTE INCLINADO E PASSA FIAÇÃO DE ALTA TENSÃO, PERIGANDO A TODOS OS MORADORES. PEDE VISITA COM O MAXIMO DE URGENCIA.",IBURA,27 DE NOVEMBRO,"RUA SAO XAVIER, Nº 235",Alagamentos,0,-8.1146075,-34.9519166,False,1,0.0,2.0,70.0,LVd2,Baixa
8017780616,2016-04-16 19:19:00,19:19,USUÁRIO INFORMA QUE A BARREIRA DESABOU E SOLICITA URGÊNCIA,BREJO DA GUABIRABA,ALTO DAS PEDRINHAS,"TRAVESSA 2 N,09",Deslizamentos de Barreiras,1,-7.9910715,-34.933333,False,1,0.0,107.0,54.0,LVd4,Média
8004155215,2015-02-13 15:55:00,15:55,"USUÁRIO RELATA QUE UMA PLACA DE CIMENTO CERCA DE 1 METRO DE COMPRIMENTO 70 Centímetro DE LARGURA E 4 Centímetro DE ALTURA QUE FICA NO TETO DE UM QUARTO DO APARTAMENTO 303 DESABO, POR TANTO A FERRAGEM DO TETO ESTÁ EXPOSTA E APRESENTA RACHADURA E PEDE UMA VISTORIA NO LOCAL PARA VERIFICAR SE TEM RISCO DE DESABAR ALGUMA PARTE DESTA ESTRUTURA.",CIDADE UNIVERSITARIA,CIDADE UNIVERSITARIA,"RUA ARTUR WANDERLEY, Nº495",Desabamento Parcial Imoveis,0,-8.0449465,-34.949081,False,1,0.0,0.0,17.0,A2,Baixa
8067868021,2021-08-03 08:27:00,08:27,SOLICITA VISTORIA EM BARREIRA QUE DESLIZOU E ATINGIU A CASA E A PAREDE ESTA COM RACHADURAS COM RISCO DE QUEDA,NOVA DESCOBERTA,CGO. DO JOAQUIM,SUBIDA CORREGO DO JOAQUIM 46,Deslizamentos de Barreiras,1,-7.999595,-34.9364629,False,1,1.2,21.0,86.0,LVd4,Média
8046595717,2017-05-31 07:30:00,07:30,"MURO CONSTRUINDO ENCIMA DE UM MURO DE ARRIMO ESTÁ APRESENTANDO RACHADURAS E TA COM GRANDE RISCO DE DESABAR ENCIMA DA CASA DA SOLICITANTE E IMOVEL TAMBÉM SE ENCONTRA NESSAS CONDIÇÕES, PEDE URGENCIA DA EQUIPE NO LOCAL, MORADORA ESTÁ MUITO NERVOSA E NECESSITA MUITO QUE ALGUÉM VÁ AO LOCAL.",NOVA DESCOBERTA,ALTO JD. PROGRESSO,"Rua Nacip Raydan, N  97",Muro com Danos,0,-8.0049279,-34.9268142,False,1,26.0,98.0,63.0,LVd4,Baixa
8043095317,2017-05-20 05:27:00,05:27,"CONTATO: ANTONISD SABRINA INFORMA QUE OUVE INCÊNDIO E SOLICITA O ACOMPANHAMENTO DA SEDEC NO LOCAL, FOGO JA CONTROLADO. SEM VITIMAS.",AFOGADOS,AFOGADOS,"estrada dos remédios, 1526",Incendios,0,-8.0654395,-34.9080784,False,1,0.2,15.0,7.0,URBANO,Baixa
8019656718,2018-02-14 10:07:00,10:07,DESEJA VISTORIA DE UMA CONSTRUÇÃO IRREGULAR DE UM PRIMEIRO ANDAR E FOSSE SENDO CAVADA  NA BARREIRA COM RISCO DE DESLIZAMENTO E RISCO DE CAIU EM OUTRAS CASAS,DOIS UNIDOS,ALTO DA ESPERANCA,Vinte e Um de Junho 93,Deslizamentos de Barreiras,1,-7.9935716,-34.9156559,False,1,0.2,-1.0,46.0,LVd4,Média
8011912816,2016-03-18 12:08:00,12:08,USUARIA SOLICTA UMA VISTORIA NA BARREIRA POIS A AGUA DO VIZINHO INFILTRAR NA MESMA E AINDA POSSUI TRES PES DE BANANEIRO ISTO ESTA OFERENÇENDO RISCO DE DESLIZAMENTO NO LOCAL POR ISSO SOLICITA URGENCIA,NOVA DESCOBERTA,CGO. DO EUCALIPTO,"RUA LUIZ JACINTO DA SILVA, 25",Deslizamentos de Barreiras,1,-8.0069178,-34.9273157,False,1,0.0,7.0,47.0,LVd4,Baixa
8019262415,2015-06-30 16:59:00,16:59,"a usuária informa que o muro da casa da vizinha esta perigoso podendo atingir sua residencia,favor verificar com urgência.",IBURA,JD. MONTE VERDE,rua alto santa tereza,Muro com Danos,0,-8.1114828,-34.9615055,False,1,0.0,8.0,64.0,PV1,
8056405222,2022-05-29 08:25:00,08:25,USUÁRIO INFORMA QUE TEM MAIS DE CINCO ÁRVORE NO MEIO DA  BARREIRA QUE ESTÁ COM RISCO!,IBURA,LAGOA ENCANTADA,AV. DR BENIGNO JORDÃO DE VASCONSELOS N.1115,Arvores em Risco,0,-8.116954549999999,-34.95209736849097,False,1,5.2,40.2,69.0,LVd2,Média
8040133018,2018-03-29 08:42:00,08:42,"USUÁRIA SOLICITA VISTORIA NA BARREIRA COM RISCO, INFORMA QUE A CASA ESTA COM RISCO DE DESLIZAR JUNTOS COM A BARREIRA E TEM MUITAS CRIANÇAS NA RESIDENCIA A USUÁRIA ESTA DESESPERADA PEDE URGÊNCIA.",LINHA DO TIRO,CGO. DO ABDIAS,"RUA RUA SANTA  MERCEDES N, 147",Imoveis com Danos/Risco,0,-8.0090621,-34.9046508,False,1,1.8,31.0,28.0,URBANO,Média
8048468416,2016-08-05 09:12:00,09:12,"usuario relata que estao fazendo um primeiro andar em cima da barreira,estao cavando e colocando em risco as pessoas proximas.",NOVA DESCOBERTA,CGO. DO JOAQUIM,Rua Cunha Porã 344,Imoveis com Danos/Risco,0,-7.9992462,-34.9329646,False,1,0.0,1.0,43.0,LVd4,Baixa
8066813622,2022-06-13 11:25:00,11:25,SOLICITA VISTORIA A CASA ESTA CHEIA DE RACHADURAS DEVIDO E CHUVA E TEM UMA PAREDE QUASE CAINDO,VARZEA,UR 07,RUA LABREA 23,Imoveis com Danos/Risco,0,-8.0394494,-34.9791585,False,1,0.2,0.6,51.0,PV1,Média
8090632819,2019-07-24 08:32:00,08:32,sr. solicita a vistoria na barreira que esta caindo e pode atingir as residências de baixo,VARZEA,BARREIRAS,rua pacote de mel n  13,Deslizamentos de Barreiras,1,-8.02377775,-34.96467022239024,False,1,6.2,84.0,52.0,LVd2,Média
8053168022,2022-05-25 11:29:00,11:29,a barreira deslizou e derrubou um poste pequeno e esta atrapalhando a passagem dos pedestres,DOIS IRMAOS,CGO. DA FORTUNA,rua das fronteiras n 206,Deslizamentos de Barreiras,1,-8.0114255,-34.9520689,False,1,0.4,20.7,34.0,A2,Média
8019290019,2019-02-15 18:38:00,18:38,a usuária informa que o muro de arrimo está com rachaduras e infiltrações por conta de uma canaleta que fica por cima dela.,IBURA,UR 10,rua coronel jose candido de miranda  n 38,Muro com Danos,0,-8.1358593,-34.950997,False,1,0.0,0.0,20.0,LVd2,Média
8053618917,2017-06-15 09:15:00,09:15,usuario deseja a vistoria em um pe de jaca que esta com risco de queda,VARZEA,BARREIRAS,"rua mata grande,81",Arvores em Risco,0,-8.0238835,-34.9662738,False,1,2.8,59.0,52.0,LVd2,Média
8053251621,2021-06-14 18:30:00,18:30,"esta com a parede arriscada de cair, informa que ja caiu uma parte devido a chuvasinforma que é uma casa antiga de taipa",CASA AMARELA,CASA AMARELA,"rua santa izabel, 557",Desabamento Parcial Imoveis,0,-8.0269935,-34.9188861,False,1,0.0,0.0,30.0,A2,Baixa
8075386019,2019-06-14 10:04:00,10:04,"SRA. SOLICITA A VISTORIA EM UM IMOVEL QUE ESTA APRESENTANDO GRANDES RACHADURAS DE MAIS DE TRÊS DEDOS NO DIA 13/04 POR CONTA DA CHUVA O MURO CAIU , PEDE URGÊNCIA.",SAO JOSE,SAO JOSE,RUA IMPERIAL N 1524,Imoveis com Danos/Risco,0,-8.0760051,-34.89503005813444,False,1,0.0,29.0,5.0,AGUA,Baixa
8150726319,2019-12-19 11:03:00,11:03,SR. SOLICITA A VISTORIA EM UMA CONSTRUÇÃO IRREGULAR NA BARREIA ONDE UM RAPAZ PUXOU UMA LAJE ENCOSTADA AO MURO DO USUÁRIO E ESTA COM RACHADURAS E DANOS.,DOIS UNIDOS,DOIS UNIDOS,RUA EPAMINONDAS MENDONÇA N 146,Imoveis com Danos/Risco,0,-7.9920012,-34.9137515,False,1,0.0,2.0,32.0,LVd4,Média
8020892420,2020-02-13 12:56:00,12:56,USUÁRIA SOLICITA VISTORIA NA BARREIRA QUE CEDEU DESDE 2019 E CONTINUA CEDENDO.,MACAXEIRA,MACAXEIRA,RUA   TEREZA CARNEIRO    N 325,Deslizamentos de Barreiras,1,-8.0066925,-34.9299141,False,1,0.0,6.0,49.0,LVd4,Baixa
8033056318,2018-03-15 10:46:00,10:46,USUÁRIO INFORMA SOBRE CASA COM VÁRIAS RACHADURAS QUE OFERECE GRANDE RISCO DE DESABAMENTO.SOLICITA VISTORIA PARA ORIENTAÇÕES,CORDEIRO,CORDEIRO,"RUA MARIA QUITERIA, 149",Imoveis com Danos/Risco,0,-8.0449802,-34.9283707,False,1,0.0,8.0,10.0,A2,Baixa
8090423019,2019-07-24 05:35:00,05:35,USUÁRIA INFORMA DESLIZAMENTO DE BARREIRA E ATINGIU A CASA DA VIZINHA SEM VITIMAS NO LOCAL,NOVA DESCOBERTA,NOVA DESCOBERTA,"RUA NOVA DESCOBERTA, 1900",Deslizamentos de Barreiras,1,-8.0198572,-34.9266431,False,1,,,19.0,A2,Baixa
8046436421,2021-05-21 10:22:00,10:22,"USUÁRIO SOLICITA VISTORIA EM UMA BARREIRA CONDENADA PELA DEFESA CIVIL QUE ESTÃO CONSTRUINDO UMA CASA, QUE ANTERIORMENTE UMA CASA CAIU NESSE MES,O LOCAL.",PASSARINHO,CGO. DA BICA,"2TR CORREGO DA BICA, N 290",Imoveis com Danos/Risco,0,-7.9866233,-34.9287523,False,1,0.3,5.1,,LVd4,Média
8053025422,2022-05-25 10:20:00,10:20,SOLICITA VISTORIA A CASA ESTA COM INFILTRAÇÃO DA BARREIRA  A CASA ESTA TODA ALAGADA,LINHA DO TIRO,CGO. DO SARGENTO,RUA URIEL DE HOLANDA 1465,Imoveis com Danos/Risco,0,-8.0056797,-34.9000772,False,1,0.5,20.7,,URBANO,Média
8018190114,2014-10-17 09:39:00,09:39,"RESIDENCIA DE DEMANDANTE ESTA TOTALMENTE DANIFICADO E COM DIVERSAS RACHADURAS EM TODOS OS CÔMODOS, PEDE QUE SEJA VERIFICADO COM BREVIDADE.",COQUEIRAL,ALTO DA BELA VISTA,"RUA PARAIBA, 94 A",Imoveis com Danos/Risco,0,-8.086404,-34.9662168,False,1,,,,PV1,Baixa
8077062719,2019-06-17 15:19:00,15:19,"USUÁRIA SOLICITA VISTORIA COM URGÊNCIA, POIS A BARREIRA CAIU E ESTÁ MUITO PRÓXIMO A RESIDENCIA.",COHAB,VILA DO MILAGRES,"RUA MARIANO CARNEIRO DA CUNHA , N 235",Deslizamentos de Barreiras,1,-8.1181962,-34.9495208,False,1,,,,LVd2,Média
8018699015,2015-06-29 12:07:00,12:07,/USUARIO SOLICITA VISTORIA E COLOCAÇÃO DE LONA EM BARREIRA COM RISCO POIS OCORREU DESLIZAMENTO. O MESMO PEDE URGENCIA,JD. SAO PAULO,JD. SAO PAULO,"RUA MANUEL DE MATOS, 100",Deslizamentos de Barreiras,1,-8.0662752,-34.9362607,False,1,,,,HP,Baixa
8029012518,2018-03-07 08:53:00,08:53,USUÁRIO INFORMA SOBRE PRÉDIO COM RACHADURAS E BARULHOS DE ESTALOS EM SUA ESTRUTURA. USUÁRIO PEDE UMA VISTORIA DA EQUIPE DA DEFESA CIVIL PARA QUE NÃO OCORRAM ACIDENTES.,IPUTINGA,IPUTINGA,"RUA ADEMAR PIRES TRAVASSOS, 275",Imoveis com Danos/Risco,0,-8.0398236,-34.9373458,False,1,0.0,-1.0,,URBANO,Baixa
8103786319,2019-08-26 07:54:00,07:54,"USUÁRIO INFORMA QUE DUAS BARREIRAS DESLIZARAM PRÓXIMO A SUA RESIDÊNCIA E ENTUPIRAM A CANALETA. A ÁGUA ESTÁ DANIFICANDO A ESTRUTURA DO SEU MURO E DA SUA RESIDÊNCIA, POIS ESTÁ SE ACUMULANDO. FAVOR VERIFICAR.",VASCO DA GAMA,VASCO DA GAMA,"RUA VASCO DA GAMA, 2068",Imoveis com Danos/Risco,0,-8.0052505,-34.9217532,False,1,1.2,14.0,,LVd4,Média
8069670122,2022-06-20 09:40:00,09:40,deseja vistoria no apartamento que esta com muitas rachadutas nas paredes e teto.,PINA,PINA,rua amador bueno n 170,Imoveis com Danos/Risco,0,-8.0877814,-34.8964697,False,1,3.1,18.5,,HP,Baixa
8067248022,2022-06-14 08:49:00,08:49,SOLIITA VISTORIA A CASA ESTA CHEIA DE RACHADURAS  E PARTE DA CAIXA DE AGUA TAMBEM COM RACHADURAS,DOIS UNIDOS,DOIS UNIDOS,RUA EXP JESUINO VENTURA 99,Imoveis com Danos/Risco,0,-7.9974518,-34.9108119,False,1,0.0,0.7,,LVd4,Média
8062931422,2022-06-06 19:36:00,19:36,"DESLIZAMENTO DE BARREIRA DE GRANDE PORTE, QUE ACONTECEU SÁBADO, USUÁRIO SOLICITA VISTORIA PARA ORIENTAR OS DEMAIS MORADORES SE PODEM PERMANECER SOU SAIR DO LOCAL EXISTEM VÁRIAS MORADIAS AO REDOR. TAMBÉM É NECESSÁRIO UMA LIMPEZA CAPINAÇÃO E COLOCAÇÃO DE LONAS PLASTICAS.",VASCO DA GAMA,ALTO DO EUCALIPTO,RUA  PIRIZAL N 120,Deslizamentos de Barreiras,1,-8.0091928,-34.9183702,False,1,0.3,5.1,,A2,Média
8151786118,2018-12-15 08:47:00,08:47,"CONSTRUCAO EM BARREIRA,  FOI CONSTRUIDA UMA LAGE EQUIPE FOI ACIONADA NO LOCAL, NOTIFICARAM OS PROPRIETÁRIOS POREM ELES CONTINUAM A CONSTRUIR E JA ESTAO LEVANTANDO A BASE DA CASA. USUARIA SOLICITA EQUIPE COM URGENCIA POIS FICA EM CIMA DE SUA CASA COM RISCO DE QUEDA. BARREIRA ONDE ESTA SENDO FEITA A CONSTRUCAO É É UM LOCAL JA CONDENADA, MORADORA ANTIGA ESTA ATE RECEBENDO O AUXILIO",IBURA,LAGOA ENCANTADA,RUA PROFESSOR MARIONEDES BATISTAS     00,Imoveis com Danos/Risco,0,-8.116954549999999,-34.95209736849097,False,1,0.2,0.0,,LVd2,Média
8055963122,2022-05-28 12:49:00,12:49,"Usuário deseja fazer uma reclamação, porém em anônimo, informa que foi feito uma construção irregular em uma barreira , e a obra está com ameaça de desabamento, inclusive já chegou a ceder a algumas partes . Há duas residências abaixo da obra correndo risco.",NOVA DESCOBERTA,NOVA DESCOBERTA,"Rua Córrego da areia , n 192",Desabamento Parcial Imoveis,0,-7.9999358,-34.9268208,False,1,3.5,80.2,,LVd4,Média
8055733622,2022-05-28 08:28:00,08:28,"USUARIO INFORMA DSLIZAMENTO DE BARREIRA, A CASA CAIU. SOLICITA VISTORIA.",IBURA,LAGOA ENCANTADA,"RUA ENG JOSE AMARO FREIRE, 31",Desabamento Total Imoveis,0,-8.116954549999999,-34.95209736849097,False,1,5.2,80.2,,LVd2,Média
8054707517,2017-06-19 07:17:00,07:17,SOLICITA VISTORIA EM SUA RESIDENCIA POIS ESTÁ TENDO INFILTRAÇÃO DA CASA DE CIMA JA A UM MES. SOLICITA VISTORIA NESSE LOCAL,JORDAO,JORDAO ALTO,"AV DONA CARENTINA, 1071",Imoveis com Danos/Risco,0,-8.1348391,-34.9451985,False,1,0.0,11.0,,LVd2,Média
8112811719,2019-09-18 11:43:00,11:43,SOLICITA VISTORIA EM UM DUPLEX POIS INFORMA QUE HÁ UMA CANALETA QUEBRADA AO LADO DE SUA CASA E TODO A ÁGUA QUE SAI DA CANALETA ESTA INDO PARA O ALICERCE DE SUA RESIDENCIA A MESMA AFIRMA QUE AS PAREDES ESTÃO TODAS RACHADAS COM ISSO SOLICITA UMA URGÊNCIA FAVOR VERIFICAR,IBURA DE BAIXO,VILA DO SESI,RUA MONSENHOR JOÃO OLÍMPIO DOS SANTOS N 445,Imoveis com Danos/Risco,0,-8.1087557,-34.9416089,False,1,0.0,10.0,,LVd2,Baixa
8013969119,2019-02-06 10:10:00,10:10,usuaria informa que tem uma casa que estar preste a cair em cima de sua casa pede que a equipe local,JORDAO,JORDAO BAIXO,RUA   BOANERGES PEREIRA n 82,Imoveis com Danos/Risco,0,-8.1371227,-34.9408076,False,1,0.2,46.0,,LVd2,
8023823516,2016-05-10 07:42:00,07:42,"a barreira caiu e a parede continua no lugar com risco de queda,favor verificar pois o usuario esta com medo.",LINHA DO TIRO,CGO. DO TIRO,rua carandai,Imoveis com Danos/Risco,0,-8.0454263,-34.9184038,False,1,0.2,15.0,,A2,Baixa
8049321517,2017-06-05 11:49:00,11:49,USUARIA SOLICITA UMA VISTORIA DE UMA ARVORE ESTA ESTOURANDO O MURO E SOLICITA URGENCIA POSSUI RISCO DE QUEDA NO LOCAL E ESTA NA ENTRELAÇADA AO FIO DE ALTA TENSÃO,CASA AMARELA,CASA AMARELA,"ESTRADA DO ARRIAL, 430",Arvores em Risco,0,-8.0246343,-34.917753,False,1,0.0,-1.0,,A2,Baixa
8071009921,2021-08-11 09:09:00,09:09,A BARREIRA DESLIZOU E DERRUBOU UM MURO E O BARRO ESTA JA NA PAREDE DA CASA DA USUÁRIA.,IBURA,UR 05,RUA FREI LOUREIRO N 21,Muro com Danos,0,-8.1322968,-34.9531895,False,1,2.4,44.0,,LVd2,Média
8007250615,2015-03-09 16:09:00,16:09,"A USUARIA INFORMA QUE ESTA A BARREIRA ESTA DESLIZANDO,FAVOR VERIFICAR COM URGENCIA.",CGO. DO JENIPAPO,CGO. DO JENIPAPO,rua sao valeriano,Deslizamentos de Barreiras,1,-8.008056,-34.9348806,False,1,0.0,56.0,,A2,Média
8038881420,2020-04-21 10:56:00,10:56,"USUÁRIA INFORMA QUE ARVORE LOCALIZADA NA ABARREIRA ATRÁS DE SUA CASA CAIU UMA PARTE E A OUTRA ESTA ESTALANDO PRESTES A CAIR, A MESMA TEME POIS A ARVORE PODE ATINGIR SUA RESIDÊNCIA.",IBURA,UR 01,"RUA GONÇALVES CRESPO, N 52",Arvores em Risco,0,-8.117241,-34.9502195,False,1,0.0,1.0,,LVd2,Média
8024622316,2016-05-11 12:48:00,12:48,"USUÁRIO PEDE COLOCAÇÃO DE LONAS PLÁSTICA, O MESMO INFORMA QUE HOUVE DESLIZAMENTO NA BARREIRA, SEM VÍTIMAS.",BREJO DA GUABIRABA,ALTO DAS PEDRINHAS,"RUA NOVA REZENDE, N 42",Deslizamentos de Barreiras,1,-8.0007319,-34.9240673,False,1,0.0,13.0,,LVd4,Baixa
8044192021,2021-05-14 15:51:00,15:51,"USUÁRIO INFORMA QUE O MURO DE ARRIMO ESTA COM ALGUMAS RACHADURAS, E COM MUITA INFILTRAÇÃO DE ÁGUA E INDO PARA A RESIDENCIA.",IBURA,UR 10,"RUA CONTINENTAL, N69",Muro com Danos,0,-8.135009,-34.9480277,False,1,0.0,66.0,,LVd2,Média
8067263121,2021-07-30 16:34:00,16:34,USUÁRIO INFORMA QUE PARTE DO TETO DA GALERIA CAIU NA SEMANA PASSADA E OUTRA PARTE ESTA COM VARIAS RACHADURAS E ESTA COM RISCO DE QUEDA.,AREIAS,AREIAS,RUA ERNESTO NAZARE N 98,Desabamento Parcial Imoveis,0,-8.0941474,-34.9284115,False,1,0.0,0.0,,HP,Baixa
8072708821,2021-08-16 09:11:00,09:11,solicita vistoria em rachaduras aparentes nas pilastras e escadas em um prédio caixão.,IMBIRIBEIRA,IMBIRIBEIRA,"rua professor pedro augusto carneiro leão, 387",Imoveis com Danos/Risco,0,-8.1188465,-34.9099201,False,1,0.8,5.0,,HP,Baixa
8071304922,2022-06-22 17:01:00,17:01,USUARIO INFORMA QUE MURO DE ARRIMO CORRE RISCO DE QUEDA,AREIAS,AREIAS,RUA DOS PRAZERES N 104,Muro com Danos,0,-8.1010929,-34.9252615,False,1,4.0,47.8,,HP,Baixa
8018021315,2015-06-25 12:53:00,12:53,USUÁRIA SOLICITA VISTORIA EM BARREIRA JÁ HOUVE DESLIZAMENTO PARCIAL DANIFICANDO CASA DE BAIXO E COM RISCO AOS MORADORES.,VARZEA,JD. TERESOPOLIS,RUA PELÓPIDAS N. 197,Deslizamentos de Barreiras,1,-8.0327123,-34.9764484,False,1,3.2,39.0,,LVd2,Média
8048933717,2017-06-04 20:01:00,20:01,USUARIO INF QUE A BARREIRA DESLIZOU NÃO TEVE DANOS NO IMOVEL NEM VITIMAS MAIS SOLICITA URGENCIA POIS PODE DESABAR O RESTANTE DA BARREIRA,DOIS IRMAOS,CGO. DA FORTUNA,"RUA SITIO SAPUCAIA N,160",Deslizamentos de Barreiras,1,-8.0083781,-34.9589903,False,1,0.0,5.0,,A2,Baixa
8019123614,2014-10-30 12:25:00,12:25,"CIDADÃ SOLICITA VISTORIA EM BARREIRA QUE ESTA SENDO ESCAVADA NA CASA DE SEU VIZINHO, SENDO NA CASA Nº 290, A MESMA ESTÁ COMO MEDO QUE A MESMA DESLIZE QUE ARRASTE SUA RESIDÊNCIA.",MACAXEIRA,MACAXEIRA,"RUA SAO BENTO, Nº 280",Imoveis com Danos/Risco,0,-8.0087001,-34.9274428,False,1,0.2,1.0,,A2,Baixa
8017014315,2015-06-11 08:31:00,08:31,"USUÁRIO SOLICITA VISTORIA E RETIRADA DE ABACATEIRO, QUE ESTÁ OCO E COM RISCO DE QUEDA (LOCALIZADO EM BARREIRA). URGENTE.",ALTO JOSE BONIFACIO,ALTO JOSE BONIFACIO,RUA 2 TRAV. DO ALTO DA BELA VISTA N. 3278,Arvores em Risco,0,-8.0129991,-34.9127978,False,1,0.0,0.0,,A2,Média
8112008118,2018-09-06 09:01:00,09:01,USUÁRIO INFORMA QUE A SUA VIZINHA ESTÁ REALIZANDO UMA OBRA IRREGULAR QUE ESTÁ CAUSANDO DANOS NO MURO DO MESMO E GERANDO TRANSTORNOS. FAVOR VERIFICAR,IBURA,TRES CARNEIROS BAIXO,"RUA IBIRACI, N 372",Muro com Danos,0,-8.1253038,-34.9571034,False,1,0.0,0.0,,A2,Média
8133321018,2018-10-31 10:09:00,10:09,DESEJA VISTORIA EM CASA POIS ACHA QUE TEM UMA INFILTRAÇÃO NA BASE DA SUA RESIDENCIA E ESTA PREJUDICANDO OUTRA CASA .POR FAVOR VERIFICAR,IBURA,TRES CARNEIROS ALTO,RUA   IBIRAPUA 48,Imoveis com Danos/Risco,0,-8.126599,-34.9564101,False,1,0.0,11.0,,A2,Baixa
8016052122,2022-02-17 15:11:00,15:11,SRA SOLICITA A COLOCAÇAO DA LONA E PODA DE UMA ARVORE NA BARREIRA,IBURA,LAGOA ENCANTADA,RUA EMPRESARIO ERNESTO LUNDGREN N85,Arvores em Risco,0,-8.124922,-34.9526141,False,1,0.1,3.4,,LVd2,Média
8000871316,2016-01-11 06:17:00,06:17,"USUÁRIA SOLICITA UMA VISTORIA EM SUA RESIDÊNCIA, POIS DEVIDO A ESSAS CHUVAS A SUA RESIDÊNCIA ESTÁ COM BASTANTE RACHADURAS NA COZINHA E NO QUARTO, E TENDO BASTANTE ESTRALOS. PEDE URGÊNCIA, NO ATENDIMENTO A SOLICITANTE ESCUTOU VÁRIOS ESTRALOS NA CASA.",IBURA,UR 02,"RUA FLORIANO BARBOSA DE OLIVEIRA, N 650",Imoveis com Danos/Risco,0,-8.1341431,-34.9497581,False,1,0.0,0.0,,LVd2,Baixa
8018309715,2015-06-28 21:30:00,21:30,"USUARIA INFORMA QUE A BARREIRA DESLIZOU, ESTA ENCOSTA NA PAREDE DA COZINHA , ELE INFORMA QUE ESTA COM MEDO QUE A PAREDE NÃO AGUENTE E VENHA ACAIR",CASA AMARELA,CASA AMARELA,RUA 2°TRV MARIA GONÇALVES,Deslizamentos de Barreiras,1,-8.0246343,-34.917753,False,1,12.2,50.0,,A2,Baixa
8013112319,2019-02-05 09:24:00,09:24,SOLICITA LONA PARA A BARREIRA QUE FICA AO LADO DA SUA RESIDENCIA A MESMA AFIRMA QUE A BARREIRA PRECISA SER CAPINADA E AFIRMA QUE JÁ CAIU PARTE DO BARRO FAVOR VERIFICAR,IBURA,IBURA DE BAIXO,RUA CÂNDIDO MENDES N 12,Deslizamentos de Barreiras,1,-8.1215632,-34.9397226,False,1,0.0,-1.0,,LVd2,Alta
8060279018,2018-05-08 15:14:00,15:14,"VISTORIA NA CASA DO VIZINHO QUE ESTA FURANDO A BARREIRA QUE FICA EM CIMA DA CASA DA MÃE DA MESMA , A BARREIRA E DE PEDRA E ELES ESTÃO UMA CONSTRUÇÃO IRREGULAR.",NOVA DESCOBERTA,CGO. DA AREIA,RUA TEOLANDIA N  247,Imoveis com Danos/Risco,0,-8.0002578,-34.9232616,False,1,0.0,0.0,,LVd4,Baixa
8062249922,2022-06-06 09:07:00,09:07,SOLICITA VISTORIA A CASA ESTA COM INFILTRAÇÃO E MORADORA NÃO SABE DE ONDE VEM ESSA AGUA .,LINHA DO TIRO,CGO. DO TIRO,RUA UMUARAMA 41 A,Imoveis com Danos/Risco,0,-8.0127765,-34.9083817,False,1,0.2,5.1,,A2,Média
8077592017,2017-08-25 10:16:00,10:16,USUÁRIO SOLICITA VISTORIA EM SUA BARREIRA POIS A MESMA ESTÁ DESLIZANDO E JÁ ESTÁ A POUCOS METROS DA PAREDE DA CASA,GUABIRABA,CGO. JOSE IDALINO,"RUA ITAIANDU, 49",Deslizamentos de Barreiras,1,-7.9962875,-34.9336803,False,1,0.0,0.0,,LVd4,Média
8016542615,2015-06-08 08:54:00,08:54,/USUARIO SOLICITA VISTORIA BARREIRA QUE ESTA COM RISCO DEVIDO A UMA ARVORE QUE ESTA PRESTES A CAIR,VARZEA,ROSA SELVAGEM,RUA CONEGO  JOSE FERNANDES MACHADO. 777,Arvores em Risco,0,-8.0359857,-34.9739503,False,1,0.0,3.0,,LVd2,Média
8090457119,2019-07-24 06:22:00,06:22,"USUÁRIA INFORMA QUE SUA BARREIRA É MUITA ALTA E ESTA COM RISCO DE CAIR , COM ESSA FORTE CHUVA ESTA COM RISCO DE DESLIZAR",NOVA DESCOBERTA,CGO. DO JOAQUIM,RUA   ARACE n 77,Deslizamentos de Barreiras,1,-7.9996747,-34.9349302,False,1,9.4,84.0,,LVd4,Média
8146504019,2019-12-09 16:50:00,16:50,SOLICITA QUE SEJA FEITO UMA VISTORIA NA ESTRUTURA DO TERMINAL DE ÔNIBUS POIS AFIRMA QUE A CABINE DO FISCAL E A PARADA DE ÔNIBUS ESTÃO COM AS FERRAGENS EXPOSTAS E POPULARES JÁ OUVIRAM ESTRALOS NA ESTRUTURA DO LOCAL COM ISSO SOLICITA UMA EQUIPE O MAS BREVE POSSÍVEL FAVOR VERIFICAR,IBURA,LAGOA ENCANTADA,AVENIDA DOUTOR BENIGNO JORDÃO DE VASCONCELOS SN,Imoveis com Danos/Risco,0,-8.113521,-34.9528413,False,1,0.0,0.0,,PV1,Baixa
8017401715,2015-06-16 10:28:00,10:28,SOLICITA/SE COM BREVIDADE A CAPINAÇÃO,NOVA DESCOBERTA,ALTO DR. CAETES,RUA DO RATINHO,Deslizamentos de Barreiras,1,-8.0026696,-34.9295613,False,1,0.0,2.0,,LVd4,Baixa
8049977618,2018-04-18 13:44:00,13:44,"A USUARIO  INFORMA QUE SÃO DUAS  BARREIRAS, UMA  PRECISA DE CAPINAÇÃO ,",NOVA DESCOBERTA,CGO. DO INACIO,RUA CORREGO DO INACIO,Deslizamentos de Barreiras,1,-7.9972381,-34.9303751,False,1,0.2,5.0,,LVd4,Média
8020388815,2015-07-06 15:59:00,15:59,MORADORA INFORMA QUE VIZINHA ESTA FAZENDO SERVIÇO NA BARREIRA E ESTÁ CAVANDO PARA CONSTRUIR. PEDE VISTORIA COM URGENCIA.,DOIS UNIDOS,ALTO DO ROSARIO,"RUA DA PAZ,",Deslizamentos de Barreiras,1,-8.0015133,-34.918901,False,1,0.0,2.0,,LVd4,Baixa
8047026620,2020-06-16 11:03:00,11:03,SOLICITA VISTORIA NA BARREIRA QUE FICA POR TRÁS DA SUA CASA POIS HA UM PÉ DE CAJÁ ESTA PENDURADO E COM O PESO DELE E AS CHUVAS ESTA INCLINANDO CADA VEZ MAS E AGORA SURGIRAM RACHADURAS COM LARGURA QUE PASSA UM DEDO O REBOCO ESTA CAINDO COM ISSO SOLICITA UMA EQUIPE NO LOCAL PARA VERIFICAR SE HÁ RISCO DE DESABAMENTO O MESMO PEDI URGÊNCIA,IBURA,UR 03,RUA ENGENHO BONDADE N 166,Arvores em Risco,0,-8.1141153,-34.9465532,False,1,0.2,21.0,,LVd2,Alta
8060661320,2020-08-24 19:19:00,19:19,"O USUARIO INFORMA QUE NO LOCAL SE ENCONTRA UMA ARVORE EM RISCO QUE NECESSITA DE CORTE,FAVOR VERIFICAR.",DOIS UNIDOS,ALTO DO ROSARIO,"RUA BUENO, N 86",Arvores em Risco,0,-7.9972647,-34.9200114,False,1,0.0,-1.0,,LVd4,Média
8027415322,2022-03-22 06:10:00,06:10,barreira deslizou ela  fica no campo de futebol do corrego da fortuna,DOIS IRMAOS,CGO. DA FORTUNA,av professor claudio selva n 02,Deslizamentos de Barreiras,1,-8.0126963,-34.9523302,False,1,0.2,20.9,,A2,Baixa
8022473215,2015-07-22 22:45:00,22:45,"USUÁRIO SOLICITA VISTORIA EM BARREIRA, INFORMA QUE TERCEIROS ESTÃO JOGANDO LIXO EM CIMA DA BARREIRA PODENDO ACARRETAR O DESABAMENTO DA MESMA EM CIMA DE SUA RESIDÊNCIA, PEDE URGÊNCIA NO ATENDIMENTO.",NOVA DESCOBERTA,CGO. DO EUCALIPTO,"RUA ANTONIO TERTULIANO C. OLIVEIRA, N°151",Deslizamentos de Barreiras,1,-8.0060622,-34.9306446,False,1,0.0,12.0,,LVd4,Média
8017928316,2016-04-17 08:06:00,08:06,"USUÁRIO SOLICITA VISTORIA E CAPINAÇÃO NA BARREIRA , INFORMA QUE DESLIZOU 2 VEZES ONTEM E HOJE.",VASCO DA GAMA,VASCO DA GAMA,"RUA   DIADEMA N, 113",Deslizamentos de Barreiras,1,-8.0063434,-34.9168824,False,1,0.0,25.0,,A2,Média
8092090117,2017-10-05 09:15:00,09:15,USUÁRIA INFORMA QUE DONA LAURA JUNTOS COM AS DUAS FILHAS DEU UM TERRENO CONDENADO PELA DEFESA CIVIL E ESTÃO CONSTRUINDO UMA CASA E OS DEMAIS MORADORES ESTÃO COM MEDO QUE VENHA OCORRE UM DESLISAMENTO NA BARREIRA FAVOR VERIFICAR,NOVA DESCOBERTA,ALTO DO CRUZEIRO,RUA FRANCISCO PASSOS N 251,Invasao de Terreno de Auxilio Moradia,0,-8.017866,-34.9274039,False,1,0.2,4.0,,A2,Média
8019042020,2020-02-11 10:22:00,10:22,"USUÁRIO INFORMA QUE HÁ UMA ENCANAÇÃO CLANDESTINA POR TRÁS DE SUA CASA, QUE VEM DA CASA DO SEU VIZINHO E A ENCANAÇÃO ESTÁ ENCHARCANDO A BARREIRA. FAVOR REALIZAR VISTORIA",AGUA FRIA,CGO. DO DEODATO,"RUA SOLITARES, SN",Imoveis com Danos/Risco,0,-8.0121353,-34.902964,False,1,0.0,1.0,,URBANO,Baixa
8073834522,2022-06-29 19:22:00,19:22,SOLICITA COLCOAÇÃO DE LONA PLASTICA EM BARREIRA DE GRANDE PORTE SE FAZ NECESSARIO REALIZAR A LIMPEZA CAPINAÇÃO E ERRADICAÇÃO DE ARVORES EM BARREIRA.,ALTO JOSE BONIFACIO,ALTO JOSE BONIFACIO,BISMARQUE DE FREITAS 77,Arvores em Risco,0,-8.0129991,-34.9127978,False,1,0.0,0.6,,A2,Média
8085373120,2020-12-04 14:55:00,14:55,"SR SOLICITA VISTORIA NO EDF QUE ESTA APRESENTANDO INFILTAÇAO, RACHADURAS, ALGUMAS PORTAS TAMBEM NAO ESTAO FECHANDO E ESTUFAMENTO EM ALGUNS LOCAIS",IMBIRIBEIRA,IMBIRIBEIRA,RUA CONEGO JULIO CABRAL N95,Imoveis com Danos/Risco,0,-8.0901787,-34.90839,False,1,0.0,1.0,,HP,Baixa
8046702817,2017-05-31 08:50:00,08:50,"USUÁRIA SOLICITA COLOCAÇÃO DE LONA COM URGÊNCIA INFORMA QUE A BARREIRA DESLIZOU, E EM CIMA DA BARREIRA TEM UMA CASA.",VARZEA,UR 07,"RUA   INALDO BARTOLOMEU DE CARVALHO N, 27",Deslizamentos de Barreiras,1,-8.0353832,-34.9788514,False,1,12.4,98.0,,PV1,Média
8008290419,2019-01-24 11:56:00,11:56,USUÁRIO SOLICITA VISTORIA NO PRÉDIO QUE ESTÁ COM RACHADURAS. PEDE URGÊNCIA.,BOA VIAGEM,BOA VIAGEM,"RUA CÔNEGO ROMEU , N 314",Imoveis com Danos/Risco,0,-8.1379595,-34.9072104,False,1,0.0,1.0,,HP,Baixa
8059303622,2022-06-01 07:58:00,07:58,"USUARIA SOLICITA VISTORIA E COLOCAÇÃO DE LONA, BARREIRA MUITO ALTA.",ALTO JOSE BONIFACIO,ALTO JOSE BONIFACIO,"RUA CAPINZAL, 51",Imoveis com Danos/Risco,0,-8.0129991,-34.9127978,False,1,0.5,2.7,,A2,Média
8032315521,2021-04-13 11:38:00,11:38,SOLICITA VISTORIA PARA RETIRADA DE PÉ DE AZEITONA,PASSARINHO,ALTO SANTA TEREZA,RUA SO NOS DOIS 51,Arvores em Risco,0,-7.9907608,-34.9270968,False,1,0.0,0.0,,LVd4,Média
8139781318,2018-11-19 10:42:00,10:42,usuária informa que seu imóvel esta com rachaduras e solicita uma vistoria,JD. SAO PAULO,JD. SAO PAULO,"avenida são paulo, n 1087 , apartamento 304",Imoveis com Danos/Risco,0,-8.0662752,-34.9362607,False,1,0.0,0.0,,HP,Baixa
8018752815,2015-06-29 12:56:00,12:56,"OCORREU DESLIZAMENTO DE BARREIRA NA MADRUGADA DA DATA DO CHAMADO, VISTORIAR EM URGENCIA.",NOVA DESCOBERTA,ALTO DO CRUZEIRO,"RUA FRANCISCO PASSOS, Nº 58",Deslizamentos de Barreiras,1,-8.017866,-34.9274039,False,1,0.0,92.0,,A2,Média
8009862915,2015-03-30 13:17:00,13:17,USUARIO SOLICITA UMA VISTORIA POIS O SEU VIZINHO ESTA CONSTRUINDO UM MURO NA BARREIRA QUE POSSUI RISCO DE QUEDA NO LOCAL EM CIMA DE SUA CASA,NOVA DESCOBERTA,OLHO DAGUA,"RUA JOSE CARNEIRO LINS, Nº 49",Imoveis com Danos/Risco,0,-8.0093439,-34.9244622,False,1,0.0,21.0,,A2,Média
8092536619,2019-07-26 08:24:00,08:24,USUÁRIA INFORMA QUE TEM UM GALPÃO E O MURO ALTO ESTA CEDENDO E ESTA RACHADO E CASAS AO REDOR. ELE NAO PARA DE CEDER.,IBURA,IBURA DE BAIXO,TRAVESSA GUARACIABA N 27,Muro com Danos,0,-8.1258536,-34.9455255,False,1,1.0,11.0,,LVd2,Média
8022321815,2015-07-22 11:28:00,11:28,SOLICITA/SE COLOCAÇÃO DE LONA,NOVA DESCOBERTA,ALTO JD. PROGRESSO,"RUA CRICIUMA, 36",Deslizamentos de Barreiras,1,-8.0030566,-34.9259801,False,1,0.0,12.0,,LVd4,Média
8042838018,2018-04-05 14:19:00,14:19,"PRODIO CAIXAO ESTA DEMOSTRANDO RACHADURAS, PISO ESTA CEDENDO A POIS UM SERVIÇO QUE ESTA SENDO FEITO NO TERRENO AO LADO",CASA FORTE,CASA FORTE,RUA GERONIMO DE ALBUQUERQUE     N  86,Imoveis com Danos/Risco,0,-8.0337811,-34.9183073,False,1,0.0,1.0,,AGUA,Baixa
8042734021,2021-05-13 12:23:00,12:23,"SOLICITA VISTORIA, INFORMA QUE BARREIRA ESTÁ CAINDO AOS POUCOS, EXISTE UMA ÁRVORE QUE APARENTA ESTAR PRESTES A VIRAR TAMBÉM.",VASCO DA GAMA,ALTO DO EUCALIPTO,"TV PIRIZAL, 30",Arvores em Risco,0,-8.0098376,-34.9180826,False,1,13.8,146.0,,A2,Média
8004548722,2022-01-14 09:46:00,09:46,"SOLICITA COLOCAÇÃO DE LONA PLASTICA ,CAPINAÇÃO E ARVORE NA BARREIRA",ALTO JOSE BONIFACIO,CGO. DO EUCLIDES,RUA CÓRREGO DO EUCLIDES 1955,Arvores em Risco,0,-8.0079644,-34.9123279,False,1,0.7,8.9,,URBANO,Baixa
8147404018,2018-12-05 11:50:00,11:50,"sra. solicita vistoria na barreira, pois construirão um a estrutura para uma casa e a barreira esta ameaçando  a deslizar.",JORDAO,JORDAO BAIXO,rua governador roberto silveira. quadra L 15,Deslizamentos de Barreiras,1,-8.1312646,-34.9374056,False,1,0.0,0.0,,LVd2,Média
8061281622,2022-06-03 11:47:00,11:47,"vistoria na casa o gesso caiu metade e outra parte tambem esta comprometida e muita infiltracao na casa inteira,e rachaduras. favor a urgencia pois esta com muitos estalos",AREIAS,AREIAS,rua antonio pinheiro n 142,Imoveis com Danos/Risco,0,-8.0965347,-34.9303459,False,1,1.1,26.0,,HP,Baixa
8097205117,2017-10-21 20:38:00,20:38,"USUÁRIO INFORMA QUE UMA ÁRVORE TOMBOU EM FRENTE AO HOSPITAL ALTINO VENTURA, POR CIMA DA FIAÇÃO ELÉTRICA, ATINGINDO TAMBÉM UM MURO QUE FICOU DANIFICADO. PEDE UMA VISTORIA COM URGÊNCIA.",BOA VISTA,BOA VISTA,RUA DO PROGRESSO,Muro com Danos,0,-8.0589526,-34.8895739,False,1,0.0,1.0,,URBANO,Baixa
8039663020,2020-04-26 15:20:00,15:20,"usuária solicita vistoria, lonas e capinação. Informa que parte da barreira deslizou na madrugada anterior",NOVA DESCOBERTA,ALTO DO REFUGIO,"agulha, 15",Desabamento Parcial de Obras de Contencao/Drenagem,0,-7.9991223,-34.9271986,False,1,0.0,52.0,,LVd4,Média
8073680120,2020-10-22 10:49:00,10:49,USUARIO INFORMA QUE A RESIDENCIA ESTA APRESENTADO RACHADURAS NO LOCAL E COLOCAR LONA NA BARREIRA,LINHA DO TIRO,CGO. DO ABDIAS,RUA CORREGO DO ABDIAS N46,Imoveis com Danos/Risco,0,-8.0090621,-34.9046508,False,1,0.0,7.0,,URBANO,Média
8055765522,2022-05-28 08:59:00,08:59,"USUARIO INFORMA QUE HOUVE DESLIZAMENTO A EQUIPE ESTEVE NO LOCAL, DISSE QUE IA COLOCAR LONA E NAO COMPARECEU. SOLICITA LONA E VISTORIA.",PASSARINHO,ALTO SO NOS DOIS,"RUA ALTO SO NOS DOIS, 45",Deslizamentos de Barreiras,1,-7.988553550000001,-34.92232574738948,False,1,4.8,80.2,,LVd4,Baixa
8036003020,2020-03-26 15:18:00,15:18,"USUÁRIA SOLICITA VISTORIA DA RESIDENCIA ( 1º ANDAR) , INFORMA QUE ESTÁ INFILTRANDO ÁGUA DO ESGOTO DA CASA DE CIMA .",TORROES,TORROES,"RUA IRANI , N 10",Imoveis com Danos/Risco,0,-8.0544148,-34.9375824,False,1,0.0,0.0,,A2,Baixa
8040703220,2020-05-05 09:15:00,09:15,"USUÁRIO INFORMA QUE O VIZINHO ESTÁ CONSTRUINDO UM PRIMEIRO ANDAR E A BARREIRA, CLARAMENTE, NÃO RESISTIRÁ AO PESO DA CONSTRUÇÃO, AINDA MAIS SEM A ESTRUTURA OU ACOMPANHAMENTO PROFISSIONAL NECESSÁRIOS.SRA JOSILENE MORA ABAIXO DESSA BARREIRA E TEME PELA VIDA DE SUA FAMILIA.",NOVA DESCOBERTA,ALTO DO CRUZEIRO,RUA COLINA DOS ANDES,Imoveis com Danos/Risco,0,-8.0081562,-34.9339244,False,1,0.0,4.0,,A2,Média
8077109322,2022-07-07 09:52:00,09:52,SOLICITA VISTORIA EM IMOVEL AO LADO DA SUA RESIDENCIA QUE PARTE DA LAJE CAIU E AGORA MORADOR ESTA FAZENDO OBRA NESSE LOCAL,JORDAO,JORDAO BAIXO,RUA FLORESTAL 45,Imoveis com Danos/Risco,0,-8.1382723,-34.9336442,False,1,0.3,19.8,,LVd2,Média
8009758715,2015-03-28 18:48:00,18:48,"USUARIA INFORMA QUE UM VIZINHO ESTA CAVANDO O PE  DA BARREIRA, CAUSANDO UM DESLISAMENTO, USUARIA INFORMA QUE MORA NA CASA A CIMA..",GUABIRABA,ALTO JOSE IDALINO,RUA PEDRO BELO N°113,Deslizamentos de Barreiras,1,-7.9956409,-34.9358638,False,1,0.0,0.0,,LVd4,Baixa
8090984119,2019-07-24 11:53:00,11:53,INFORMA QUE NA MADRUGADA DE HOJE A BARREIRA QUE FICA POR TRÁS DA SUA RESIDENCIA DESLIZOU E DERRUBOU TODA SUA CASA E DE MAS DUAS VIZINHA A MESMA AFIRMA QUE NÃO OUVE FERIDOS E QUE ESTA ALOCADA NA CASA DE VIZINHOS ATÉ UMA EQUIPE COMPARECER AO LOCAL FAVOR VERIFICAR,PASSARINHO,ALTO SANTA TEREZA,AVENIDA CHAGAS FERREIRA N 25A,Desabamento Total Imoveis,0,-7.9867243,-34.926024,False,1,2.2,84.0,,LVd4,Média
8007177715,2015-03-09 13:56:00,13:56,SOLICITA VISTORIA EM BARREIRA QUE DESLIZOU. E PEDE COLOCAÇÃO DE LONA PLASTICA. PEDE URGENCIA.,IBURA,UR 01,"RUA PARANGABA, Nº 61",Deslizamentos de Barreiras,1,-8.1247555,-34.9453841,False,1,0.0,56.0,,LVd2,Baixa
8044021121,2021-05-14 13:55:00,13:55,SR SOLICITA VISTORIA NO EDF QUE ESTA APRESENTANDO VARIAS RACHADURAS,JD. SAO PAULO,JD. SAO PAULO,RUA MARIA DO CARMO CATUNDA N167,Imoveis com Danos/Risco,0,-8.0782755,-34.9399438,False,1,5.2,66.0,,HP,Baixa
8107930321,2021-12-06 10:07:00,10:07,"USUARIO INFORMA  DESLIZAMENTO DA BARREIRA  HÁ ALGUNS DIAS.  A CODECIR ESTEVE NO LOCAL, COMEÇOU A RETIRAR METRALHA POIS ESTAVA SOBRE A FOSSA, E NÃO TERMINOU .SOLICITA COLOCAÇÃODE LONA PLASTICA,  REMOÇÃO DO MATERIAL E NOVA VISTORIA.",IBURA,UR 05,"RUA BOM DESTINO, 10",Deslizamentos de Barreiras,1,-8.126427,-34.9548206,False,1,0.0,2.5,,LVd2,Alta
8025641116,2016-05-14 10:46:00,10:46,usuaria solicita de uma vistoria na barreira,IBURA,VILA DOS MILAGRES,RUA CANTOR  NILTON CESAR n 122,Deslizamentos de Barreiras,1,-8.1056967,-34.9528239,False,1,0.0,0.0,,PV1,Média
8046417021,2021-05-21 09:50:00,09:50,"USUÁRIA SOLICITA VISTORIA, POIS A BARREIRA DESLIZOU.",IBURA,LAGOA ENCANTADA,"RUA DEPUTADO JOAQUIM COUTINHO, 395",Deslizamentos de Barreiras,1,-8.1265266,-34.9511307,False,1,1.0,9.0,,LVd2,Média
8031540521,2021-04-12 11:42:00,11:42,"USUÁRIO SOLICITA VISTORIA, POIS A BARREIRA DESLIZOU E ATINGIU A CASA DE BAIXO. PRECISA DE LONA E CAPINAÇÃO",IBURA,UR 05,"RUA FREI LOUREIRO, SN",Deslizamentos de Barreiras,1,-8.1322968,-34.9531895,False,1,0.0,31.0,,LVd2,Média
8030231216,2016-05-30 05:38:00,05:38,SR CECILA INFORMA QUE A RUA ESTA ALAGADA E A MESMA SOLICITA UMA VISOTIRA DA CODECIR,COELHOS,COELHOS,"RUA BITURUNA, 46",Imoveis Alagados,0,-8.0687489,-34.8900401,False,1,10.4,66.0,,AGUA,Baixa
8059034917,2017-07-03 09:19:00,09:19,CLIENTE INFORMA QUE HÁ BARREIRA QUE FICA EM CIMA DA SUA RESIDENCIA A QUALQUER MOMENTO PODE CAIR COM ISSO TODOS QUE ESTÃO  NA CASA SAÍRAM COM MEDO DE DESLIZAMENTO FAVOR VERIFICAR AS INFORMAÇÕES O MAS BREVE POSSÍVEL,VASCO DA GAMA,CGO. DO BOTIJAO,SUBIDA DO BACARDIR,Imoveis com Danos/Risco,0,-8.0123133,-34.917952,False,1,1.2,10.0,,A2,Média
8069688117,2017-08-01 15:31:00,15:31,"USUÁRIA SOLICITA VISTORIA PARA CASA ANTIGA QUE FUNCIONA O CONSELHO REGIONAL DE ENFERMAGEM, ESTÁ COM INFILTRAÇÕES,RACHADURAS E ESTÃO OUVINDO ESTALOS AS PORTAS ESTÃO DESNIVELADAS,AS PAREDES ESTÃO DANDO CHOQUE E A GOTEIRA EM TODA PARTE.CASA TOMBADA.A MESMA INFORMA QUE OS FUNCIONÁRIOS FORAM MANDADOS PARA CASA DEVIDO AS CHUVAS DA ÚLTIMA SEMANA DE JULHO.",BOA VISTA,BOA VISTA,RUA BARÃO DE SÃO BORJA 243,Imoveis com Danos/Risco,0,-8.0607981,-34.8898134,False,1,0.6,9.0,,URBANO,Baixa
8092968319,2019-07-26 15:09:00,15:09,USUÁRIA INFORMA QUE BARREIRA DESLIZOU DESDE DE QUARTA FREIRA  MAS NAO ATIGIU A RESIDENCIA E ESTA QUASE ATIGINDO A BR.,BREJO DA GUABIRABA,ALTO DAS PEDRINHAS,AV RECUPERAÇÃO  N SN,Deslizamentos de Barreiras,1,-7.9910755,-34.9360648,False,1,0.0,11.0,,LVd4,Baixa
8066631718,2018-05-23 08:45:00,08:45,"USUÁRIO INFORMA SOBRE CASA ABANDONADA ONDE OS DONOS FALECERAM E OS FAMILIARES NÃO LIGAM.CASA COM A ESTRUTURA MUITO DETERIORADA PODENDO CAIR A QUALQUER MOMENTO, SOLICITA VISTORIA.",AFOGADOS,AFOGADOS,"RUA JUVANDA, 95",Imoveis com Danos/Risco,0,-8.0700719,-34.9074204,False,1,1.6,2.0,,URBANO,Baixa
8007002215,2015-03-09 08:56:00,08:56,DESEJA COLOCAÇÃO DE LONA COM URGÊNCIA.,DOIS UNIDOS,DOIS UNIDOS,TRV JOAO CAVALCANTE PETRIBU,Deslizamentos de Barreiras,1,-7.9915895,-34.9178606,False,1,0.6,56.0,,LVd4,Média
8047560018,2018-04-13 08:42:00,08:42,"DESEJA COLOCAÇÃO DE LONA EM BARREIRA QUE FICA LOCALIZADA POR TRÁS DA CASA DELA, DIZ QUE A CANALETA FEITA PELA PREFEITURA ESTA DESCENDO AGUÁ PELA BARREIRA DEVIDO O REGO TER ESTOURADO E COM ISSO BARREIRA ESTA DESLIZANDO AOS POUCOS, DIZ QUE BARREIRA FICA AO LADO DO QUARTO DELA.  SERÁ NECESSÁRIO CAPINAÇÃO POIS DIZ TER BANANEIRAS E PÉ DE MAMÃO. FAVOR VERIFICAR.",DOIS UNIDOS,ALTO DO CAPITAO,"RUA SEVERINA MARIA DA CONCEIÇÃO, 56",Deslizamentos de Barreiras,1,-7.9989231,-34.9152415,False,1,0.4,23.0,,LVd4,Média
8061158317,2017-07-07 08:36:00,08:36,USUÁRIO SOLICITA A RETIRADA DO COQUEIRO QUE FICA NA BARREIRA COM RISCO DE QUEDA PEDE URGÊNCIA.,DOIS UNIDOS,ALTO DA ESPERANCA,"RUA MANOEL LOPES DE ALBUQUERQUE N, 05",Arvores em Risco,0,-7.9939262,-34.9147667,False,1,4.2,13.0,,LVd4,Média
8058678622,2022-05-31 12:43:00,12:43,SRA SOLICITA VISTORIA NUMA ARVORE QUE FICA NA BARREIRA E ESTA CAINDO SOBRE UMA RESIDENCIA,VASCO DA GAMA,VASCO DA GAMA,RUA BREJO BONITO N152,Arvores em Risco,0,-8.011774,-34.919054,False,1,3.1,21.1,,A2,Média
8038062317,2017-05-08 11:38:00,11:38,"USUÁRIA SOLICITA COLOCAÇÃO DE LONA, INFORMA QUE A BARREIRA DESLIZOU E AGUA ESTA ENTRANDO DENTRO DO QUARTO PEDE URGÊNCIA.",LINHA DO TIRO,CGO. DO SARGENTO,"RUA CÓRREGO DO SARGENTO N, 11",Deslizamentos de Barreiras,1,-7.9990249,-34.9342349,False,1,4.4,16.0,,LVd4,Baixa
8059284318,2018-05-07 11:40:00,11:40,"DESEJA VISTORIA EM PRÉDIO ARVORE DE VIA PUBLICA CAUSANDO RACHADURAS NA ESCADA ,ESTRUTURA DO PRÉDIO ,NA GARAGEM E NO APARTAMENTO DO MORADOR QUE ENTROU EM CONTATO ( PRÉDIO DE DOIS PAVIMENTOS E OITO APARTAMENTOS )OBS: SÃO QUATRO ARVORES .ORIENTADO A LIGAR TAMBÉM PARA EMLURB",IMBIRIBEIRA,IMBIRIBEIRA,RUA DUQUE  ESTRADA 101,Imoveis com Danos/Risco,0,-8.1123692,-34.9045475,False,1,0.0,0.0,,HP,Baixa
8041363918,2018-04-03 11:36:00,11:36,a usuaria informa que a barreira da rua com bastante risco de deslizamento e comunica tambem que a sua casa está com diversas rachaduras.,COQUEIRAL,COQUEIRAL,"Rua Sussuarana, n 120",Deslizamentos de Barreiras,1,-8.0917399,-34.9657259,False,1,0.0,4.0,,URBANO,
8073821019,2019-06-12 11:18:00,11:18,"USUÁRIO INFORMA QUE ESTÃO CAVANDO A BARREIRA PARA CONSTRUIR CASAS, COLOCANDO EM RISCO AS PRÓPRIAS VIDAS E AS VIDAS DOS MORADORES LOCAIS.",DOIS UNIDOS,DOIS UNIDOS,AV IDELBRANDO VASCONCELOS,Arvores em Risco,0,-7.9974518,-34.9108119,False,1,0.6,5.0,,LVd4,Média
8030550016,2016-05-30 13:24:00,13:24,DESLIZAMENTO EM BARREIRA PEDE URGENCIA.,DOIS UNIDOS,DOIS UNIDOS,"TRV JOAO CAVALCANTI PETRIBU, N 18",Deslizamentos de Barreiras,1,-7.9912716,-34.9171168,False,1,2.8,66.0,,LVd4,Baixa
8056250922,2022-05-28 20:06:00,20:06,"informa que barreira deslizou pra casa da sua vizinha e derrubou parte da casa, nao sabe informar qual parte da casa derrubou, nao tem vitimasprecisa colocar lona, precisa capinarinforma que sua casa é de taipo",PASSARINHO,ALTO SANTA TEREZA,"rua sempre livre, 50",Imoveis com Danos/Risco,0,-7.9884804,-34.9235187,False,1,0.0,80.2,,LVd4,Baixa
8015000714,2014-09-08 11:57:00,11:57,"USUÁRIA SOLICITA VISTORIA NO EDF: JOÃO DE BARRO, INFORMA QUE O QUARTO ANDAR ESTA COM INFILTRAÇÃO E UMA PARTE DO REBOCO DO TETO CAIU E TEM UMA RACHADURA NO QUARTO.",ESPINHEIRO,ESPINHEIRO,RUA AV: JOÃO DE BARROS N 1664 APT 409,Imoveis com Danos/Risco,0,-8.0428691,-34.8912789,False,1,2.6,68.0,,URBANO,Baixa
8020208015,2015-07-04 13:32:00,13:32,"a usuaria informa que a barreira da rua esta muito prox de sua residencia e pede também vistoria em sua casa que esta com diversas rachaduras,favor verificar com urgência.",VARZEA,UR 07,rua itamarati,Deslizamentos de Barreiras,1,-8.0394494,-34.9791585,False,1,0.4,123.0,,PV1,Média
8045938618,2018-04-11 09:53:00,09:53,USUÁRIO INFORMA SOBRE DESLIZAMENTO DE SUA BARREIRA QUE ATINGIU SUA CASA.USUÁRIO PEDE  URGÊNCIA.,IBURA,VILA DOS MILAGRES,"RUA ENGENHO QUITARA, 205",Deslizamentos de Barreiras,1,-8.107540199999999,-34.949931520289695,False,1,5.8,46.0,,PV1,Média
8017390316,2016-04-16 08:27:00,08:27,USUARIO INFORMA QUE MURO DA RESIDENCIA POR TRAS DA SUA APOS DESLIZAMENTO DA BARREIRA PEDE URGENCIA POIS ESCADARIA QUE DÁ ACESSO ESTA TOTALMENTE INACESSIVEL.,ALTO JOSE BONIFACIO,ALTO JOSE BONIFACIO,"RUA SÃO DOMINGOS SAVIO, 105",Imoveis com Danos/Risco,0,-8.0149843,-34.9125177,False,1,8.2,107.0,,A2,Média
8060925918,2018-05-09 15:16:00,15:16,VISTORIA DE BARREIRA QUE O MURO DE ARRIMO APRESENTA RACHADURAS.,MACAXEIRA,BURITY,TRV MARIO ALVES SOUZA VIERA,Muro com Danos,0,-8.0167725,-34.92925013244986,False,1,0.0,2.0,,A2,Baixa
8053124620,2020-07-21 11:16:00,11:16,"USUÁRIO INFORMA SOBRE PRÉDIO COM POSSÍVEL DANO DE ESTRUTURA POIS A REDE DE ESGOTO ESTAVA INFILTRANDO PELAS COLUNAS PARA DEBAIXO DO PRÉDIO, AFETANDO A SUA ESTRUTURA. FOI VERIFICADO PARTE DO PISO CEDENDO E SE ESCUTAM ESTALOS NO PRÉDIO.",PINA,PINA,"AV CONS AGUIAR, 877",Imoveis com Danos/Risco,0,-8.0982849,-34.88531812512033,False,1,0.0,2.0,,HP,Baixa
8074723219,2019-06-13 13:43:00,13:43,"USUÁRIA SOLICITA VISTORIA POIS A BARREIRA DESLIZOU, E A MESMA ESTÁ PREOCUPADA POIS A SUA CASA PODE CAIR",DOIS UNIDOS,ALTO DO ROSARIO,RUA FELIPE CAMAROES 453,Deslizamentos de Barreiras,1,-7.988553550000001,-34.92232574738948,False,1,15.2,153.0,,LVd4,Baixa
8022364915,2015-07-22 12:49:00,12:49,"o usuario informa que no predio houve um barulho muito alto no dia anterior e no dia seguinte foi percebido diversas rachaduras nos apartamentos e na da estrutura do predio,favor verificar com urgencia.",GRACAS,GRACAS,RUA DES  MARTINS PEREIRA,Imoveis com Danos/Risco,0,-8.0451664,-34.9007686,False,1,1.4,12.0,,AGUA,Baixa
8007281915,2015-03-09 18:22:00,18:22,DENUNCIANTE INFORMA QUE REFERNENTE A UM TERRENO QUE FOI INTERDITADO PELA DEFESA CIVIL POR SER DE RISCO. POREM MUITOS MORADORES VOLTARAM PARA AS RESIDENCIAS E MUITAS CASAS FORAM INVADIDAS. INCLUSIVE CRIANÇAS CORREM RISCO. PEDE PROVIDENCIAS COM URGENCIA.,AGUA FRIA,CGO. SAO SEBASTIAO,RUA BELO JARDIM,Invasao de Terreno de Auxilio Moradia,0,-8.0180294,-34.8943993,False,1,0.0,56.0,,URBANO,Baixa
8018013521,2021-03-01 12:16:00,12:16,"SOLICITA VISTORIA DE SEU APARTAMENTO, INFORMA QUE ESTÁ COM MUITA INFILTRAÇÃO VINDO DO TETO E COM ALTO RISCO.",ESPINHEIRO,ESPINHEIRO,"RUA ALFREDO DE MEDEIROS, N 151",Imoveis com Danos/Risco,0,-8.0414796,-34.8904546,False,1,25.6,57.0,,URBANO,Baixa
8090623919,2019-07-24 08:25:00,08:25,INFORMA QUE A BARREIRA DESLIZOU E ATINGIU TRÊS CASA E COBRIU SUA CASA ATÉ O TELHADO E NO ALTO DA BARREIRA HÁ UM MURO QUE JÁ DA PRA VER A BASE DELE E A QUALQUER MOMENTO PODE CIAR E O BANHEIRO DE SUA CASA ESTA COM RISCO DE DESABAR FAVOR VERIFICAR,PASSARINHO,ALTO DA TELHA,RUA DA BETA N 2,Deslizamentos de Barreiras,1,-7.9850539,-34.9301988,False,1,6.6,84.0,,LVd4,Média
8115601319,2019-09-25 13:34:00,13:34,usuária informa que o predio esta com rachaduras e tem gente realizando obra a mesma pede urgência,IMBIRIBEIRA,IMBIRIBEIRA,rua professor pedro augusto carneiro leão n 585,Imoveis com Danos/Risco,0,-8.1171492,-34.9095272,False,1,0.0,0.0,10.0,HP,Baixa
8070826321,2021-08-10 17:57:00,17:57,"A USUARIA INFORMA QUE EXISTE DOIS PÉ DE PITOMBAS (ARVORE) LOCALIZADO EM BARREIRA COM RISCO DE CAIR E ATINGIR A SUA RESIDENCIA, FAVOR VERIFICAR COM URGENCIA.A SOLICITANTE INFORMA TAMBÉM QUE HOUVE DE DESLIZAMENTO DE BARREIRA.",PASSARINHO,ALTO DA BICA,"RUA CÓRREGO DO CURIÓ, N 77",Deslizamentos de Barreiras,1,-7.9840705,-34.9282904,False,1,0.0,21.0,41.0,LVd4,Alta
8090696619,2019-07-24 09:27:00,09:27,USUÁRIA INFORMA QUE A BARREIRA DESLIZOU E ENCOSTOU NO MURO E COM RACHADURAS COM MUITO RISCO FAVOR VERIFICAR,MACAXEIRA,BURITY,RUA MANOEL LISBOA DE MOURA N 152,Imoveis com Danos/Risco,0,-8.0089677,-34.9301109,False,1,6.2,84.0,43.0,A2,Média
8014308814,2014-09-01 09:05:00,09:05,USUÁRIO INFORMA QUE DEVIDO A CHUVA BARREIRA ESTA RACHADA E COM RISCO DESLIZAMENTO.PEDE BREVIDADE,IBURA,VILA DOS MILAGRES,"RUA CARLOS PLESTES, 115 (MONTE OLIMPIO)",Deslizamentos de Barreiras,1,-8.107540199999999,-34.949931520289695,False,1,,,35.0,PV1,Média
8056327318,2018-04-30 10:16:00,10:16,USUÁRIO INFORMA QUE A BARREIRA ESTÁ DESLIZANDO POR TRÁS DA CASA.O BARRO JÁ CHEGOU A ATINGIR A PORTA DA COZINHA.,NOVA DESCOBERTA,ALTO DO CRUZEIRO,"RAU ITARATINA, 172",Imoveis com Danos/Risco,0,-8.0081562,-34.9339244,False,1,0.4,69.0,42.0,A2,Média
8037455515,2015-12-06 10:15:00,10:15,usuaria informa que um vizinho esta esta cavando a barreira que esta preste a deslizar,IBURA,LAGOA ENCANTADA,RUA DR  BENIGNO JORDAO DE VASCONCELOS n865,Deslizamentos de Barreiras,1,-8.116954549999999,-34.95209736849097,False,1,0.0,0.0,69.0,LVd2,Média
8035168321,2021-04-20 10:42:00,10:42,"USUARIA INFORMA MURO DE TERRENO ABANDONADO, BALANÇANDO PRESTES A CAIR SOBRE CASA DE SUA SOGRA.SOLICITA  VISTORIA.",ARRUDA,ARRUDA,"RUA ZEFERINO AGRA, AO LADO DA CASA 771",Imoveis com Danos/Risco,0,-8.0250816,-34.8913229,False,1,0.0,5.0,11.0,URBANO,Baixa
8041073018,2018-04-03 07:34:00,07:34,DESEJA VISTORIA HOUVE INCÊNDIO NA SALA E QUEIMOU TODOS OS MOVEIS  E UM RAPAZ INALOU FUMAÇA *OBS: O REBOLO DA SALA ESTA CAINDO DEVIDO INCÊNDIO ( DUPLEX),TORRE,TORRE,RUA   BOTUQUARA 02,Incendios,0,-8.0425107,-34.9074638,False,1,0.0,4.0,17.0,URBANO,Baixa
8017003419,2019-02-12 10:52:00,10:52,usuario informa que um vizinho esta invadido o seu terreno. ( terreno interditado pela defesa civil),JORDAO,JORDAO BAIXO,RUA   ALBERTO LUNDGREN n 626,Invasao de Terreno de Auxilio Moradia,0,-8.1368143,-34.9365865,False,1,0.0,1.0,21.0,LVd2,Baixa
8048567918,2018-04-16 12:26:00,12:26,"A  USUÁRIA INFORMA QUE BARREIRA ESTA DESLIZANDO , COLOCANDO EM RISCO A CASA QUE TEM UM PRIMEIRO ANDAR . CAIU UM PEDAÇO DO MURO QUE PROTEGIA A BARREIRA.",LINHA DO TIRO,ALTO DA JAQUEIRA,RUA RIO CORRENTE,Deslizamentos de Barreiras,1,-8.1374293,-34.9316484,False,1,0.6,10.0,69.0,LVd2,Alta
8010617020,2020-01-27 13:46:00,13:46,USUÁRIA SOLICITA VISTORIA EM RESIDENCIA POIS INFORMA QUE ESTA COM VARIAS RACHADURAS NA CASA TODA.,IPUTINGA,IPUTINGA,RUA 3 DE MARCO N 104,Imoveis com Danos/Risco,0,-8.0325322,-34.9431015,False,1,0.0,0.0,12.0,AGUA,Baixa
8088990819,2019-07-20 22:43:00,22:43,"usuaria informa que a barreira esta deslizando, e na parte de cima da barreira tem 3 casasde acordo com a informacao da usuaria parte do muro de uma dessas casas caiu, e o barro ja encostou em sua casa",MACAXEIRA,VILA DA UNIAO,"campo da uniao, 100",Desabamento Parcial Imoveis,0,-8.00681285,-34.93232902252291,False,1,1.4,21.0,31.0,LVd4,Média
8002292920,2020-01-08 08:46:00,08:46,"USUÁRIO INFORMA QUE A SUA VIZINHA (SRA MARIA) ESTÁ REALIZANDO OBRAS IRREGULARES NO LOCAL. A MORADORA JÁ CONSTRUIU UM PRIMEIRO ANDAR, FEZ UMA FOSSA PRÓXIMO A BARREIRA E AGORA QUE FAZER UMA NOVA CONSTRUÇÃO, COLOCANDO COLUNAS NA BASE DE UMA BARREIRA QUE PÕE EM RISCO OS SEUS VIZINHOS.",NOVA DESCOBERTA,CGO. DO EUCALIPTO,"RUA EDGAR BARBOSA ANJOS, 74",Imoveis com Danos/Risco,0,-8.0069178,-34.9273157,False,1,0.0,0.0,47.0,LVd4,Baixa
8053313022,2022-05-25 12:40:00,12:40,SR SOLICITA VISTORIA NA BARREIRA QUE DESLIZOU,PASSARINHO,ALTO SO NOS DOIS,RUA ALTO SO NOS DOIS N08,Deslizamentos de Barreiras,1,-7.988553550000001,-34.92232574738948,False,1,1.5,20.7,30.0,LVd4,Baixa
8032651916,2016-06-03 19:46:00,19:46,USUARIO SOLICITA A VISTORIA EM SEU IMOVEQUE ESTÁ EM RISCO POR CONTA DE UMA ÁRVORE,IBURA,JD. MONTE VERDE,"RUA SERRA DA BOA ESPERANÇA N, 75",Imoveis com Danos/Risco,0,-8.1114788,-34.962394,False,1,0.0,31.0,64.0,PV1,
8026420720,2020-02-29 10:34:00,10:34,SRA SOLICITA VISTORIA NO MURO DE ARRIMO QUE ESTA COM RACHADURAS E OFERECENDO RISCO PARA A RESIDENCIA DA MESMA,COQUEIRAL,COQUEIRAL,RUA PARNAIBA N80,Imoveis com Danos/Risco,0,-8.0851317,-34.9707745,False,1,0.0,0.0,59.0,PV1,Média
8059085018,2018-05-07 09:25:00,09:25,DESEJA VISTORIA EM IMÓVEL  ESTA COM RACHADURAS NA SALA E COZINHA  E TEM BARREIRA PRÓXIMO E CASA DE CIMA FOI INTERDITADA,IBURA,UR 10,RUA HENRIQUE MOREIRA 21,Imoveis com Danos/Risco,0,-8.1380823,-34.9533047,False,1,0.0,0.0,52.0,A2,Média
8002530916,2016-01-22 09:01:00,09:01,"VIZINHO FEZ COSNTRUÇÃO IRREGULAR COLOCANDO IMOVÉL DE NUMERO 540 EM RISCO DE DESABAMENTO, QUALQUER MOMENTO PODE VIM A DESABAR, PEDE AGILIDADE EM AVALIAÇÃO.",IBURA,UR 10,"RUA ALTO DA ESPERANÇA, 540",Imoveis com Danos/Risco,0,-8.1373303,-34.9487268,False,1,0.0,10.0,38.0,LVd2,Baixa
8091651619,2019-07-25 07:13:00,07:13,informa que a barreira DESLIZOU  por conta dessa chuvas forte. PEDE URGÊNCIA DA EQUIPE NO LOCAL,NOVA DESCOBERTA,CGO. DO JOAQUIM,rua córrego do Joaquim n 1200 b,Deslizamentos de Barreiras,1,-7.9993175,-34.9326664,False,1,0.4,10.0,43.0,LVd4,Baixa
8007089015,2015-03-09 10:36:00,10:36,USUÁRIA INFORMA QUE HOUVE QUEDA DA BARREIRA POREM POSSUI UM TAQUE DE CONCRETO ESTA OFERECENDO RISCO QUE CAIR EM CIMA DA RESIDENCIA,VARZEA,UR 07,"RUA SOLDADO JOSE VIVANCO, 50",Imoveis com Danos/Risco,0,-8.0361322,-34.974415,False,1,0.0,56.0,65.0,LVd2,Média
8045580418,2018-04-10 15:36:00,15:36,VIZINHA ESTA CONSTRUINDO UM PREDIO. JA ESTA NO 4° ANDAR COM BASE PARA O 5°. USUARIA MAIS MORADORES AO REDOR ESTAO COM MEDO DE QUEDA POIS INFORMA QUE NAO HA EQUIPE NENHUM ESPECIALIZADA NO LOCAL PARA ORIENTAÇÃO,NOVA DESCOBERTA,ALTO DO REFUGIO,RUA SACAMBU     N  525,Imoveis com Danos/Risco,0,-7.9982989,-34.9276359,False,1,0.0,1.0,32.0,LVd4,Alta
8002586615,2015-01-29 20:32:00,20:32,"o usuario informa que no nono andar do predio as ferragens estao expostas e existe infiltrações.favor verificar,o solicitante pede urgencia.",SANTO ANTNIO,SANTO ANTNIO,av martins de barros,Imoveis com Danos/Risco,0,-8.0620554,-34.8764812,False,1,0.6,5.0,1.0,URBANO,Baixa
8055784022,2022-05-28 09:21:00,09:21,"INFORMA QUE CAIU VARIAS ARVORES, E VAI CAIR O MURO DO COLEGIO MARISTA. SOLICITA VISTORIA. BARREIRA CAIU SOBRE A CASA,.",APIPUCOS,APIPUCOS,"RUA DOIS IRMÃOS, 480",Deslizamentos de Barreiras,1,-8.0197762,-34.9403431,False,1,4.8,80.2,20.0,A2,Média
8070563221,2021-08-10 12:57:00,12:57,"SOLICITA VISTORIA, INFORMA QUE A VIZINHA TAMPOU O CANO QUE PASSAVA ÁGUA ( DE ESGOTO ) E AGORA ESTÁ ESCORRENDO PARA A RESIDÊNCIA E INFILTRANDO NAS PAREDES.",MORRO DA CONCEICAO,MORRO DA CONCEICAO,"RUA ALTO ALEGRE, N 110",Imoveis com Danos/Risco,0,-8.0203799,-34.9122501,False,1,0.6,21.0,31.0,URBANO,Média
8053654122,2022-05-25 15:30:00,15:30,"A BARREIRA CAIU, RACHOU A CASA  E SOLICITA O PROGRAMA PARCERIA E A VISTORIA.",IBURA,ALTO DA BELA VISTA,RUA VISCONDE DE AZUARA,Deslizamentos de Barreiras,1,-8.1208649,-34.9425541,False,1,0.0,20.7,60.0,LVd2,Média
8067350121,2021-07-31 11:51:00,11:51,"SOLICITA VISTORIA, INFORMA QUE ESTÃO INVADINDO O TERRENO DELA ( QUE É CONDENADO ) PARA CONSTRUIR.",IBURA,TRES CARNEIROS BAIXO,"RUA GURIU, N 93",Invasao de Terreno de Auxilio Moradia,0,-8.124568,-34.9551051,False,1,0.4,7.0,57.0,LVd2,Média
8030094317,2017-04-11 10:21:00,10:21,USAUARIA SOLICITA REPOSIÇÃO DE LONA PLASTICA POIS A ANTERIOR ESTA DANIFICADA E SOLICITA URGENCIA POSSUI RISCO DE DESLIZAMENTO NO LOCAL,NOVA DESCOBERTA,NOVA DESCOBERTA,"RUA NOVA DESCOBERTA, 61",Deslizamentos de Barreiras,1,-8.0198572,-34.9266431,False,1,0.2,13.0,19.0,A2,Baixa
8061802622,2022-06-04 10:45:00,10:45,"solicita vistoria e lonas, informa que boa parte da barreira já caiu e a casa de cima está muito próxima da beirada.",DOIS UNIDOS,SITIO DO ROSARIO,"rua engenheiro navarro, 30",Deslizamentos de Barreiras,1,-7.9969071,-34.9217767,False,1,1.0,10.0,33.0,LVd4,Baixa
8011512314,2014-07-18 09:57:00,09:57,"DEMANDANTE DESEJA VITORIA EM BARREIRA COM URGÊNCIA, SEM DESLIZAMANTO",VARZEA,UR 07,"RUA VALE DO JAGUARIBE, 107",Deslizamentos de Barreiras,1,-8.037326,-34.9761745,False,1,0.4,8.0,79.0,PV1,Baixa
8036460021,2021-04-24 10:24:00,10:24,SOLICITA VISTORIA POIS PRÉDIO ESTA CHEIO DE RACHADURAS E INFILTRAÇÕES  .E UMA PARTE DA FACHADA DA VARANDA DO PRIMEIRO ANDAR  CAIU HOJE .,ZUMBI,ZUMBI,RUA TOMAZ GONZAGA 92,Imoveis com Danos/Risco,0,-8.0489386,-34.9173886,False,1,0.0,3.0,9.0,A2,Baixa
8075725018,2018-06-12 08:14:00,08:14,"USUÁRIA INFORMA QUE TEM UMA CASA QUE NA BARREIRA E TEM PRIMEIRO ANDAR O PRIMEIRO ANDAR ESTÁ CEDENDO E TEM MUITAS CASAS ABAIXO E O TELHADO CEDE DO PRIMEIRO ANDAR, A BARREIRA E TODA DE BARRO.",VARZEA,JD. TERESOPOLIS,RUA DIOGENES SAMPAIO N121,Imoveis com Danos/Risco,0,-8.0348029,-34.9592525,False,1,0.0,0.0,24.0,A2,Média
8012630014,2014-08-05 10:26:00,10:26,"USUÁRIA SOLICITA CORTE DE UMA MANGUEIRA QUE SE EM CONTRA NA BARREIRA, A MESMA INFORMA QUE A ARVORE ESTA CAUSANDO RACHÕES EM SUA CASA, E TAMBÉM ESTA DANIFICANDO SEU TELHADO. URGENTE.",DOIS UNIDOS,ALTO DO CAPITAO,"SUB. ALTO DO CAPITÃO, N°10",Arvores em Risco,0,-7.99967695,-34.91380530905113,False,1,0.0,0.0,69.0,LVd4,Média
8043078021,2021-05-13 15:57:00,15:57,"USUÁRIA INFORMA QUE A BARREIRA ATRÁS DA SUA CASA ESTÁ APRESENTANDO RISCO DE QUEDA, ELA INFORMA QUE HOUVE UM PEQUENO DESLIZAMENTO E SOLICITA UMA VISTORIA, ELA INFORMA QUE A BARREIRA NÃO TEM LONA.",DOIS UNIDOS,CGO. DO MORCEGO,limeira N48,Deslizamentos de Barreiras,1,-8.0013221,-34.9064312,False,1,6.2,146.0,51.0,LVd4,Baixa
8068477720,2020-09-29 10:46:00,10:46,galpao da prefeitura do recife caiu uma parede por cima do cidadão. favor verificar a urgencia,TAMARINEIRA,TAMARINEIRA,rua sao vicente n 115,Imoveis com Danos/Risco,0,-8.028213,-34.9058247,False,1,0.0,0.0,,URBANO,Baixa
8018757015,2015-06-29 12:59:00,12:59,USUÁRIA SOLICITA VISTORIA EM SUA BARREIRA QUE ESTA DESLIZANDO. A MESMA SOLICITA ERRADICAÇÃO DE ALGUMAS ARVORES QUE SE ENCONTRAM TRAZENDO RISCO PARA A BARREIRA. A MESMA SOLICITA COLOCAÇÃO DE LONA.,VARZEA,UR 07,"RUA GUARDIÃO MANOEL PACHECO, N°51.",Deslizamentos de Barreiras,1,-8.0319678,-34.9776739,False,1,0.0,92.0,79.0,LVd2,Média
8058648022,2022-05-31 12:27:00,12:27,"USUÁRIA INFORMA QUE UMA CASA NA PARTE DE CIMA DA BARREIRA ESTA COM GRANDE RISCO DE QUEDA, DEVIDO A ÁGUA ESTA INFILTRANDO NELA E SE ELA CAIR PODE ATINGIR AS CASAS A BAIXO!",BREJO DE BEBERIBE,CGO. JOSE DA GAITA,RUA DO AMOR N.175,Imoveis com Danos/Risco,0,-7.9939631,-34.9248961,False,1,6.1,21.1,55.0,LVd4,Alta
8038139418,2018-03-24 11:24:00,11:24,USAURIO SOLICITA VISTORIA EM SUA RESIDENCIA QUE ESTA COM VARIAS RACHADURAS GRANDES. PEDE URGENCIA,NOVA DESCOBERTA,CGO. DO JOAQUIM,RUA JUMA 24,Imoveis com Danos/Risco,0,-7.9985361,-34.9323188,False,1,0.0,11.0,43.0,LVd4,Alta
8046126518,2018-04-11 11:43:00,11:43,MURO DE ARRIMO COM INFILTRAÇÃO E AS CASSAS CORREM RISCO. FAVOR VERIFICAR A URGENCIA,BEBERIBE,PORTO DA MADEIRA,RUA PARANA DO OESTE N 63,Muro com Danos,0,-8.0070244,-34.8883412,False,1,9.2,46.0,12.0,LVd4,Baixa
8029890218,2018-03-08 12:54:00,12:54,USUÁRIO SOLICITA A VISTORIA POIS INFORMA QUE EXISTE ARVORE MUITO PROXIMO A BARREIRA DE GRANDE PORTE. PEDE  URGENCIA.,AGUA FRIA,CGO. DO DEODATO,"RUA SANTA EFIGÊNCIA, N 159 B",Arvores em Risco,0,-8.0121353,-34.902964,False,1,0.0,0.0,52.0,URBANO,Baixa
8034724021,2021-04-19 11:18:00,11:18,"USUÁRIA SOLICITA VISTORIA, POIS A BARREIRA DESLIZOU E O BARRO ESTÁ ENCOSTADO NA PAREDE DA CASA",PASSARINHO,ALTO SO NOS DOIS,"RUA ALTO SÓ NÓS DOIS, 105",Deslizamentos de Barreiras,1,-7.9781385,-34.923386,False,1,0.3,4.1,40.0,LVd4,Média
8027204421,2021-03-29 11:30:00,11:30,"USUÁRIO INFORMA QUE TEM UM BURACO   ENORME  NA SUA RESIDENCIA QUE FICA PERTO DA FOSSA , QUANDO CHOVE ESCORRE TODA ÁGUA PARA ESSE BURACO,QUE ESTA CAUSANDO MEDO AO MORADOR DO LOCAL",VASCO DA GAMA,ALTO 13 DE MAIO,RUA PEDRA LAVRADA N 64,Imoveis com Danos/Risco,0,-8.0094212,-34.921428,False,1,1.2,5.0,59.0,A2,Baixa
8032290815,2015-10-22 16:02:00,16:02,SOLICITA VISTORIA EM MURO DE ARRIMO.,VARZEA,ROSA SELVAGEM,"RUA GENIVALDO VASCONSELOS, N 02",Muro com Danos,0,-8.0309104,-34.9777967,False,1,0.0,-1.0,85.0,LVd2,Média
8030542816,2016-05-30 13:19:00,13:19,"DUAS ARVORES DE GRANDE PORTE EM BARREIRA APRESENTANDO TOMABAMENTO, HÁ UM MURO TAMBÉM APRESENTANDO RACHADURAS PEDE URGENCIA.",VASCO DA GAMA,ALTO 13 DE MAIO,"RUA ALTO DO MUNDO NOVO, N  82",Arvores em Risco,0,-8.0093876,-34.9226357,False,1,2.8,-1.0,59.0,A2,Média
8019680015,2015-07-02 13:58:00,13:58,"INFORMA QUE TEM UM JAMBOEIRO NA BARREIRA COM RISCO DE QUEDA, E MORADORES DAS CASAS ESTÃO EM RISCO. PEDE VISTORIA COM URGENCIA.",VASCO DA GAMA,ALTO 13 DE MAIO,"RUA SUB DO PENSAMENTO, Nº 215",Arvores em Risco,0,-8.0093876,-34.9226357,False,1,,,59.0,A2,Média
8056008322,2022-05-28 13:47:00,13:47,Usuária informa que escorreu grande quantidade de d'água na residência de sua vizinha e encontra/se ilhada sem ser possível sair de casa.,BREJO DA GUABIRABA,ALTO DAS PEDRINHAS,"Rua Córrego da Loura, n 154",Imoveis Alagados,0,-8.0142691,-34.9241833,False,1,5.2,80.2,72.0,A2,Média
8050095520,2020-07-05 10:08:00,10:08,USUÁRIA SOLICITA VISTORIA DO MURO QUE ESTÁ APRESENTANDO  RACHADURAS MUITO GRANDES E INFILTRAÇÃO .,IBURA,UR 02,"RUA  FRANCISCO CAJUEIRO , SN",Muro com Danos,0,-8.1251927,-34.9529787,False,1,,,77.0,LVd2,Média
8012179020,2020-01-29 14:12:00,14:12,USUÁRIA SOLICITA VISTORIA NA ÁRVORE QUE ESTÁ NA BARREIRA,DOIS UNIDOS,ALTO DO ROSARIO,Rua João Cavalcanti Petribu 	N 16,Arvores em Risco,0,-7.9917412,-34.9174881,False,1,0.0,21.0,24.0,LVd4,Baixa
8057358822,2022-05-30 11:37:00,11:37,informa que barreiras próximas à essa propriedade caíram fechando o acesso podendo deslizar mais.,GUABIRABA,BOLA NA REDE,estrada da mubeca,Deslizamentos de Barreiras,1,-7.9643913,-34.9243226,False,1,1.1,11.1,81.0,LVd4,Baixa
8030213416,2016-05-28 11:22:00,11:22,"SOLICITA UMA VISTORIA A MESMA DISSE QUE ESTA DESLIZANDO AOS POUCOS, FAVOR VERIFICAR",JORDAO,JORDAO BAIXO,RUA FLOR DO SERTÃO,Deslizamentos de Barreiras,1,-8.1328872,-34.9401498,False,1,0.0,0.0,34.0,LVd2,Média
8074877019,2019-06-13 15:16:00,15:16,SRA SOLICITA VISTORIA E A COLOCAÇAO DE LONA NA BARREIRA E INFORMA QUE UMA PARTE DA BARREIRA CAIU E ESTA DEIXANDO EM RISCO AS RESIDENCIAS PROXIMAS,COHAB,VILA DO MILAGRES,RUA SERRA DO PIRIQUI N27,Imoveis com Danos/Risco,0,-8.1185224,-34.9616901,False,1,18.0,153.0,40.0,PV1,
8043575318,2018-04-07 07:21:00,07:21,DESEJA COLOCAÇÃO DE LONA PLASTICA E BARREIRA DESLIZANDO AOS POUCOS E ÁGUA DA BARREIRA ESTA QUASE ENTRANDO NA CASA,VARZEA,BARREIRAS,RUA   IBATEGUARA   103,Deslizamentos de Barreiras,1,-8.0252341,-34.9613703,False,1,0.0,41.0,11.0,LVd2,Baixa
8018480815,2015-06-29 07:44:00,07:44,USUÁRIO INFORMA QUE SUA BARREIRA DESLIZOU E QUE OS BARROS CHEGARAM NA BASE DA SUA CASA E DE SEU VIZINHO.,CASA AMARELA,CASA AMARELA,"RUA JOSE RIBORÇO, N°150.",Deslizamentos de Barreiras,1,-8.0246343,-34.917753,False,1,5.4,92.0,15.0,A2,Baixa
8015779016,2016-04-10 12:14:00,12:14,"USUÁRIA SOLICITA VISTORIA EM BARREIRA QUE COM AS ÚLTIMAS CHUVAS APRESENTOU DESLIZAMENTO MODERADO, E COLOCAÇÃO DE LONA EM BARREIRA. URGENTE.",IBURA,UR 02,AV ANGRA DOS REIS  N. 27,Deslizamentos de Barreiras,1,-8.120419,-34.9560682,False,1,0.0,-1.0,85.0,LVd2,Baixa
8020251215,2015-07-04 18:20:00,18:20,"o usuario informa que a barreira da rua deslizou,favor verificar com urgencia.",ALTO JOSE BONIFACIO,ALTO JOSE BONIFACIO,rua alto jose bonifacio,Deslizamentos de Barreiras,1,-8.0074082,-34.9122948,False,1,,,22.0,URBANO,Baixa
8091194817,2017-10-03 12:16:00,12:16,DENUNCIA: USUÁRIO INFORMA QUE ESTA FAZENDO A CONSTRUÇÃO DE UM PRÉDIO EM UMA ÁREA ACIDENTADA. O MESMO INFORMA QUE A CONSTRUÇÃO ESTA SENDO FEITA COLADA COM A CASA DE TRÁS. FAVOR VERIFICAR COM URGÊNCIA.,JORDAO,JORDAO BAIXO,"RUA FLOR DE SERTÃO, N  43",Imoveis com Danos/Risco,0,-8.1312646,-34.9374056,False,1,0.0,0.0,34.0,LVd2,Média
8053162122,2022-05-25 11:26:00,11:26,USUÁRIO INFORMA QUE TEVE UM DESLIZAMENTO DE GRANDE PORTE NO LOCAL!USUARIO INFORMA QUE A BARREIRA ATINGIU DUAS CASAS E AINDA DEIXOU OUTRAS CASAS EM RISCO!,GUABIRABA,CGO. DO JENIPAPO,AV. RECUPERAÇÃO N.152,Imoveis com Danos/Risco,0,-7.993508,-34.9375683,False,1,0.4,20.7,38.0,LVd4,Baixa
8024626720,2020-02-20 12:33:00,12:33,usuário solicita remoção da árvore que caiu em cima de seu carro,CIDADE UNIVERSITARIA,CIDADE UNIVERSITARIA,RUA BERNARDINO ALVES MAIA,Tombamento de Arvores,0,-8.0439748,-34.9445518,False,1,0.0,27.0,12.0,A2,Baixa
8052678820,2020-07-18 11:02:00,11:02,"USUÁRIA INFORMA O PRÉDIO ESTA APRESENTANDO RACHADURAS, PEDE URGÊNCIA DE UMA VISTORIA NO LOCAL (   CONJUNTO RESIDENCIAL JD EUROPA EDIFÍCIO PORTUGAL )",BOA VIAGEM,BOA VIAGEM,RUA PADRE CABRAL N 286,Imoveis com Danos/Risco,0,-8.1334945,-34.9051778,False,1,0.2,20.0,8.0,HP,Baixa
8059136222,2022-05-31 17:33:00,17:33,SOLICITA VISTORIA EM BARREIRA E NA CASA DO USUÁRIO POIS O TERRAÇO DA CASA RACHOU NO MEIO DE PONTA A PONTA. COM UMA EXPESSURA DE APROX 3 DEDOS ATINGIU O MURO DO TERRAÇO.,DOIS UNIDOS,DOIS UNIDOS,RUA JOAO CAVALCANTE PETRIBU 40 ALTO,Imoveis com Danos/Risco,0,-7.9920682,-34.9179686,False,1,0.0,21.1,24.0,LVd4,Baixa
8040413417,2017-05-11 15:39:00,15:39,deseja vistoria pois a barreira esta deslizando e colocação de lona plastica com urgência ***,IBURA,LAGOA ENCANTADA,rua mariano carneiro da cunha 235,Deslizamentos de Barreiras,1,-8.1181962,-34.9495208,False,1,0.0,1.0,50.0,LVd2,Média
8017460116,2016-04-16 09:28:00,09:28,PEDE COLOCAÇÃO DE LONA POIS BARREIRA ESTA COM DESLIZAMENTO.,GUABIRABA,CGO. JOSE APRIGIO,"RUA CGO JOSE APRIGIO,165",Deslizamentos de Barreiras,1,-7.9991196,-34.9379973,False,1,27.6,107.0,42.0,LVd4,Alta
8145979419,2019-12-07 08:43:00,08:43,"USUÁRIA SOLICITA VISTORIA COM URGÊNCIA QUE A CASA DE DUPLEX FOI CONSTRUÍDA COM AREIA DE PRAIA E A 6 ANOS A DIRCON INTERDITOU ,O DONO CASA APOS A INTERDIÇÃO AINDA CONSTRUIU MAIS UM QUARTO ENCIMA E HOJE, A CASA DE BAIXO ESTA COM MUITA INFILTRAÇÃO, AS CERÂMICAS JÁ CAÍRAM E A ÁGUA E MUITO FORTE. FAVOR VERIFICAR",BRASILIA TEIMOSA,BRASILIA TEIMOSA,RUA SARAMONETE N 15,Imoveis com Danos/Risco,0,-8.0827799,-34.8789567,False,1,0.0,0.0,7.0,HP,Baixa
8039715415,2015-12-29 21:01:00,21:01,"USUARIO QUE AS 20:00 O MURO LATERAL DE SUA RESIDENCIA, CAIU. O MESMO PEDE VISTORIA COM URGENCIA SE POSSIVEL.",CASA AMARELA,CASA AMARELA,RUA GUIMARAES PEIXOTO N90,Muro com Danos,0,-8.0263771,-34.9067519,False,1,0.0,5.0,10.0,URBANO,Baixa
8091034719,2019-07-24 12:15:00,12:15,"deslizamento de barreira , o mesmo solicita lona",MACAXEIRA,VILA DA UNIAO,rua margarida n 260,Deslizamentos de Barreiras,1,-8.0096161,-34.9264616,False,1,2.2,84.0,53.0,A2,Média
8061463722,2022-06-03 14:32:00,14:32,"USUARIO INFORMA QUE A CASA FICOU ALAGADA ATE O TETO, E QUE GOSTARIA DE UMA VISTORIA NO LOCAL.",PASSARINHO,PASSARINHO ALTO,RUA BEM TE VI N.455,Elevacao do Nivel do Rio,0,-7.9800211,-34.9189704,False,1,0.3,26.0,26.0,LVd4,Baixa
8056304318,2018-04-30 09:42:00,09:42,"A USUARIA INFORMA QUE NO LOCAL SE ENCONTRA UMA GALERIA OBSTRUIDA SEM TAMPA QUE ESTÁ TRANSBORDANDO BASTANTE AGUA PARA DENTRO DO CONDOMINIO, A MESMA SOLICITA UMA VISTORIA NO CONDOMINIO E INFORMA QUE ALAGOU BASTANTE A ARÉA INTERNA DO PRÉDIO.",BOA VIAGEM,BOA VIAGEM,"RUA   JOSE HIPOLITO CARDOSO,N 17",Imoveis Alagados,0,-8.1403407,-34.9085026,False,1,0.4,69.0,16.0,HP,Baixa
8004120216,2016-02-01 17:15:00,17:15,USUARIO PEDE QUE OCORRA VISTORIA PARA UMA ARVORE DE GRANDE PORTE COM RAIZ EXPOSTA E GRANDE RISCO DE QUEDA LOCALIZADA EM BARREIRA,BEBERIBE,PORTO DA MADEIRA,rua paquevira,Arvores em Risco,0,-8.0070244,-34.8883412,False,1,0.0,6.0,12.0,LVd4,Baixa
8031717417,2017-04-17 13:12:00,13:12,CAIU UM PEDAÇO DA CASA DE SUA VIZINHA QUE NAO TEM PRA ONDE IR.SOLICITANTE INFORMA QUE A CASA TEM RACHADURAS,DOIS UNIDOS,ALTO DO ROSARIO,RUA VERTENTES DO LERIO,Imoveis com Danos/Risco,0,-7.9958977,-34.9205643,False,1,0.0,37.0,71.0,LVd4,Média
8086868019,2019-07-12 11:55:00,11:55,SR. SOLICITA A VISTORIA EM SEU MURO QUE ESTA COM GRANDES RACHADURAS E RISCO DE QUEDA,CAMPO GRANDE,CAMPO GRANDE,RUA LAGOA SECA N 1884,Muro com Danos,0,-8.0381011,-34.8820567,False,1,0.0,0.0,6.0,URBANO,Baixa
8009331818,2018-01-22 09:23:00,09:23,USUÁRIO INFORMA QUE APÓS AS CHUVAS A SUA BARREIRA DESLIZOU A SITUAÇÃO PODE SE AGRAVAR CASO NÃO SE COLOQUE A LONA.,IBURA,LAGOA ENCANTADA,"RUA DR PAULO DIBIASE, 157",Deslizamentos de Barreiras,1,-8.116954549999999,-34.95209736849097,False,1,,,69.0,LVd2,Média
8036053518,2018-03-20 19:45:00,19:45,O USUARIO INFORMA QUE NO LOCAL SE ENCONTRA UMA ARVORE LOCALIZADA NA BARREIRA COM RISCO DE POR CIMA DA FIAÇÃO.,NOVA DESCOBERTA,NOVA DESCOBERTA,RUA BARAO DE CAMAQUA,Arvores em Risco,0,-8.0062911,-34.9227154,False,1,0.0,1.0,58.0,LVd4,Baixa
8027034019,2019-03-11 13:53:00,13:53,SRA. SOLICITA A COLOCAÇÃO DE LONA E UMA VISTORIA PARA RETIRAR A ARVORE QUE ESTA NA BARREIRA.,NOVA DESCOBERTA,CGO. DO JOAQUIM,RUA EUXINITA N 30,Arvores em Risco,0,-7.9992462,-34.9329646,False,1,0.0,0.0,43.0,LVd4,Baixa
8018098220,2020-02-08 12:07:00,12:07,"A USUARIA INFORMA QUE NO LOCAL SE ENCONTRA UM MURO DE ARRIMO QUE FOI MEXIDO POR UM VIZINHO QUE JA FALACEU.A MESMA INFORMA QUE ESSE MURO APRESENTA RACHADURAS E QUE POR TRAZ DELE EXISTE BASTANTE MATO E ALGUNS ENTULHOS,FAVOR VERIFICAR.",CASA AMARELA,CASA AMARELA,"RUA ALTO SANTA ISABEL, N 12",Muro com Danos,0,-8.0246343,-34.917753,False,1,0.0,0.0,15.0,A2,Baixa
8073067618,2018-06-08 07:58:00,07:58,USUÁRIO INFORMA QUE HÁ UMA ARVORE DE GRANDE PORTE NA BARREIRA POR TRÁS DA SUA RESIDENCIA COM ISSO AFIRMA QUE A RAIZ ESTA TODA EXPOSTA E TOTALMENTE INCLINADA PARA CIMA DA RESIDENCIA ONDE A QUALQUER MOMENTO PODE CAIR COM ISSO SOLICITA UMA EQUIPE NO LOCAL COM A MÁXIMA URGÊNCIA POIS A BARREIRA AOS POUCOS ESTA DESLIZANDO POIS O BARRO ESTA MOLE E AFIRMA QUE TODA BARREIRA PRECISA SER CAPINADA E PEDI SE POSSÍVEL COLOCAR UMA LONA FAVOR VERIFICAR,NOVA DESCOBERTA,CGO. DA AREIA,RUA FELISBURGO N 161,Deslizamentos de Barreiras,1,-8.0029829,-34.9299386,False,1,0.0,3.0,63.0,LVd4,Média
8034826721,2021-04-19 13:02:00,13:02,SOLICITA VISTORIA EM MARQUISES QUE ESTÃO PRESTES A CAIR.,RECIFE,RECIFE,AVENIDA CONDE DA BOA VISTA N337,Imoveis com Danos/Risco,0,-8.0621014,-34.8816036,False,1,3.2,-1.0,10.0,URBANO,Baixa
8046769520,2020-06-15 14:00:00,14:00,"USUÁRIA INFORMA QUE VIZINHA ESTA CAVANDO A BARREIRA ACIMA DE SUA RESIDÊNCIA, PARA CONSTRUÇÃO, O QUE ESTA FAZENDO A BARREIRA CEDER, A MESMA TEME QUE A BARREIRA POSSA CAIR.",JORDAO,JORDAO BAIXO,"RUA ALCEU BOA VENTURA, N20",Deslizamentos de Barreiras,1,-8.1312646,-34.9374056,False,1,0.6,12.0,34.0,LVd2,Média
8059394517,2017-07-04 09:24:00,09:24,A BARREIRA JA POSSUI LONA POREM CAIU. BARREIRA DELIZOU PARCIAL E ATINGIU A ESCADARIA E CEDEU.,IBURA,UR 01,RUA GONCALVES CRESPO N 35,Deslizamentos de Barreiras,1,-8.117241,-34.9502195,False,1,0.0,8.0,51.0,LVd2,Média
8022231318,2018-02-19 18:07:00,18:07,o usuario informa que no quintal de sua casa existe uma arvore logo no começo da barreira que está com risco de cair.favor verificar com urgencia.o mesmo informa que deslizou um pouco a barreira.,IBURA,UR 01,AV   RIO GRANDE,Deslizamentos de Barreiras,1,-8.1200629,-34.9491955,False,1,,,74.0,LVd2,Média
8019814715,2015-07-03 09:32:00,09:32,SOLICITA/SE VISTORIA POIS VEGETAL POR TRAS DA RESIDENCIA DA SOLICITANTE ESTA INCLINADO E COM RISCO DE QUEDA ONDE BARREIRA FICARÁ EM RISCO,IBURA,LAGOA ENCANTADA,AV DOZE DE JULHO,Arvores em Risco,0,-8.116954549999999,-34.95209736849097,False,1,0.8,9.0,69.0,LVd2,Média
8017747015,2015-06-19 11:39:00,11:39,/USUARIO SOLICITA VISTORIA  EM BARREIRA E EM RESIDENCIA QUE ESTA COM RACHADURAS. O MESMO PEDE URGENCIA,NOVA DESCOBERTA,ALTO JD. PROGRESSO,"RUA SAO JOAO EUDES,172",Imoveis com Danos/Risco,0,-8.005971,-34.9262559,False,1,0.0,1.0,63.0,LVd4,Baixa
8016448617,2017-03-02 09:36:00,09:36,USUARIA SOLICITA REPOSIÇÃO DE LONA PLASTICAS POIS ANTERIOR ESTA DANIFICADA E SOLICITA URGENCIA,BOMBA DO HEMETERIO,CGO. ANTONIO RODRIGUES,"RUA PASTOR BENOBY, 240",Deslizamentos de Barreiras,1,-8.0200089,-34.9032583,False,1,0.4,10.0,14.0,URBANO,Baixa
8064270917,2017-07-16 18:03:00,18:03,USUARIA INFORMA QUE CAIU UM GALHO DA ARVORE QUE ESTA LOCALIZADA NA BARREIRA.,IBURA,LAGOA ENCANTADA,2 TRAVESSA JORNALISTA NELSON RODRIGUES,Arvores em Risco,0,-8.1245759,-34.9489477,False,1,0.0,9.0,42.0,LVd2,Média
8055843622,2022-05-28 10:26:00,10:26,"USUARIA INFORMA QUE VIZINHO CAVOU BARREIRA, CAUSANDO INFILTRAÇÃO NA CASA. SOLICITA VISTORIA.",MACAXEIRA,BOLO DE NOIVA,"RUA DILERMANDO DO NASCIMENTO, 208",Imoveis Alagados,0,-8.0081665,-34.9280496,False,1,7.9,80.2,47.0,A2,Média
8091091019,2019-07-24 12:39:00,12:39,USUÁRIA INFORMA QUE BARREIRA ESTA DESLIZANDO AOS POUCOS E TEM VARIAS ARVORES SOLICITA VISTORIA NO LOCAL.,MACAXEIRA,MACAXEIRA,2TR DA CAMPO DO UNIAO N SN,Arvores em Risco,0,-8.0118867,-34.9311631,False,1,1.6,84.0,31.0,A2,Baixa
8052874822,2022-05-25 08:40:00,08:40,USUÁRIO SOLICITA COLOCAÇÃ DE LONA E VISTORIA ARVORE QUE ESTA EMPENADO COM OS DELIZAMENTOS QUE ESTÃO OCORRENDO.,NOVA DESCOBERTA,NOVA DESCOBERTA,"RUA NAZARENO, N26",Arvores em Risco,0,-8.0030482,-34.9325432,False,1,0.5,20.7,52.0,LVd4,Média
8017803815,2015-06-21 16:23:00,16:23,"DENUNCIANTE INFORMA QUE VIZINHO ESTÁ CONSTRUINDO UM DUPLEX PROXIMO A BARREIRA, EM LOCAL DE RISCO. TEME DESABAMENTO NO FUTURO PROXIMO. PEDE VISTORIA COM URGENCIA.",FUNDAO,FUNDAO,1ª TRV CONS BARROS BARRETO,Imoveis com Danos/Risco,0,-8.0148962,-34.8903969,False,1,0.0,8.0,18.0,URBANO,Baixa
8011302914,2014-07-15 09:34:00,09:34,"USUÁRIA SOLICITA VISTORIA EM SUA CASA, A MESMA INFORMA QUE ENTROU MUITA ÁGUA EM SEU QUINTAL (OITÃO), A QUAL PENETRA PELA PAREDE EM SEU QUARTO.(VISTORIA NA RESIDENCIA)",AGUA FRIA,ALTO DO COTO,"RUA BARAO DE LUCENA, N°365",Imoveis Alagados,0,-8.0121954,-34.8999783,False,1,0.0,1.0,43.0,URBANO,Média
8043176121,2021-05-13 17:02:00,17:02,SOLICITA VISTORIA EM BARREIRA E IMÓVEL ATINGIDO POR UMA ÁRVORE.,COHAB,VILA DO MILAGRES,"RUA SERRA DO CALABOUCO, 205",Imoveis com Danos/Risco,0,-8.1172522,-34.9612708,False,1,6.8,146.0,40.0,PV1,
8065951821,2021-07-28 09:59:00,09:59,USUÁRIA INFORMA QUE O PRÉDIO ESTA APRESENTANDO RACHADURAS POR CONTA DE UMA ARVORE QUE FICA NA CALCADA COM AS RAÍZES EMBAIXO DO PRÉDIO.,BOA VIAGEM,BOA VIAGEM,RUA GENERAL SALGADO N 600,Imoveis com Danos/Risco,0,-8.1407144,-34.9092389,False,1,0.0,5.0,16.0,HP,Baixa
8015887816,2016-04-11 10:42:00,10:42,usuaria solicita de uma lona na barreira,NOVA DESCOBERTA,NOVA DESCOBERTA,RUA   NOVA DESCOBERTA n 1730,Deslizamentos de Barreiras,1,-8.0011728,-34.9234946,False,1,0.0,17.0,32.0,LVd4,Média
8062610518,2018-05-14 12:17:00,12:17,"USUÁRIO SOLICITA VISTORIA NA RESIDENCIA DELE E DE SUA VIZINHA, POIS A ÁGUA DA RESIDENCIA DELA ACUMULA NO QUINTAL DA RESIDENCIA DELE E ESTÁ PROVOCANDO INFILTRAÇÃO, OFERECENDO RISCO. PEDE URGÊNCIA.",IBURA DE BAIXO,VILA DO SESI,"RUA FERNANDO TOMAZ DA SILVA , N 508",Imoveis com Danos/Risco,0,-8.1176034,-34.9396697,False,1,0.0,1.0,19.0,LVd2,Baixa
8105423917,2017-11-16 11:51:00,11:51,"USUÁRIO SOLICITA UMA VISTORIA NA RESIDENCIA , INFORMA QUE AS PAREDES ESTÃO COM RACHADURAS E OFERECENDO RISCO DE CAIR.",TEJIPIO,TEJIPIO,"RUA AREALVA ,N 105",Imoveis com Danos/Risco,0,-8.0935268,-34.9614827,False,1,0.0,1.0,15.0,URBANO,Baixa
8049176321,2021-05-31 15:23:00,15:23,SOLICITA VISTORIA EM BARREIRA E COLOCAÇÃO DE LONA PLÁSTICA PRECISA CAPINAR. OBS JÁ OUVE DESLIZAMENTO DE GRANDE PARTE DA BARREIRA. E AMEAÇANDO CAIR MAIS.,PASSARINHO,ALTO DA TELHA,RUA ALTO DA TELHA N901,Deslizamentos de Barreiras,1,-7.9850539,-34.9301988,False,1,0.0,44.0,61.0,LVd4,Média
8027392015,2015-09-01 10:24:00,10:24,"USUÁRIA SOLICITA VISTORIA E COLOCAÇÃO DE LONA, POIS A QUE EXISTIA NO LOCAL RASGOU E BARREIRA DESCOBERTA.",BEBERIBE,PORTO DA MADEIRA,AVENIDA BEBERIBE N. 1157,Deslizamentos de Barreiras,1,-8.0068872,-34.8909196,False,1,1.6,12.0,20.0,LVd4,Baixa
8060470320,2020-08-24 11:18:00,11:18,"USUÁRIO INFORMA SOBRE CASA QUE FOI ABANDONADA E ESTÁ COM A ESTRUTURA DETERIORADA E OFERECE RISCO DE QUEDA. CASA SE LOCALIZA AO LADO DA CASA DA SUA MÃE E PODE DANIFICAR A SUA RESIDÊNCIA, FAVOR VERIFICAR.",ALTO JOSE DO PINHO,ALTO JOSE DO PINHO,"RUA BELO MONTE, 28 A",Imoveis com Danos/Risco,0,-8.0238048,-34.9066409,False,1,0.0,-1.0,33.0,URBANO,Média
8058546421,2021-07-03 08:58:00,08:58,"USUÁRIA SOLICITA COLOCAÇÃO DE LONAS PLASTICAS E CAPINAÇÃO NA BARREIRA, E VISTORIA POIS ESTA OCORRENDO DESLIZAMENTOS.",DOIS UNIDOS,CGO. DO CURIO,"RUA CÓRREGO DO CURIO, N159",Deslizamentos de Barreiras,1,-8.000652850000002,-34.915896439373704,False,1,1.2,28.0,36.0,LVd4,Média
8062512321,2021-07-15 20:46:00,20:46,"USUÁRIO INFORMA QUE HOUVE UM DESLIZAMENTO DE BARREIRA HÁ MAIS DE UM ANO, ELE INFORMA QUE AGORA APARECEU UM BURACO NA RUA E A ÁGUA ESTÁ INFILTRANDO NA BARREIRA, SOLICITA UMA VISTORIA.",DOIS UNIDOS,ALTO DO MARACANA,1TR JOSE MENEZES DE LYRA FILHO N730,Imoveis com Danos/Risco,0,-8.0044956,-34.9066946,False,1,0.0,9.0,35.0,URBANO,Alta
8030744621,2021-04-11 06:49:00,06:49,"USUÁRIO SOLICITA VISTORIA, POIS A BARREIRA DESLIZOU. PRECISA DE LONA E CAPINAÇÃO",IBURA,27 DE NOVEMBRO,"AV. SONHO REAL, 390",Deslizamentos de Barreiras,1,-8.1102627,-34.9567399,False,1,1.4,146.0,58.0,PV1,Média
8055897922,2022-05-28 11:08:00,11:08,"USUARIO INFORMA QUE SEU IRMÃO ENCONTRA/SE EM CASA E ESTA ILHADO, ENCONTRA/SE EM CIMA DE UMA PAREDE.",AREIAS,AREIAS,"RUA VALDEMIR TELES, N 243",Alagamentos,0,-8.0941474,-34.9284115,False,1,8.0,80.2,13.0,HP,Baixa
8060133717,2017-07-05 13:08:00,13:08,USUARIA INFORMA QUE UM PE DE CORAÇAO DE NEGRO QUE ESTA PENDENDO. CONTATO CEL: 81 85281715,IBURA,UR 04,RUA CAPITAO VICENTE CURADO,Arvores em Risco,0,-8.1323859,-34.9484299,False,1,0.8,24.0,17.0,LVd2,Baixa
8131554818,2018-10-25 20:26:00,20:26,"USUÁRIA INFORMA QUE O PRÉDIO ESTA PASSANDO POR UMA REFORMA, O PRÉDIO FICOU TODO SE TREMENDO A MESMA INFORMA QUE FICOU MUITO ASSUSTADA. PEDE URGÊNCIA DA VISITA NO LOCAL",SANTO ANTNIO,SANTO ANTNIO,RUA FREI CANECA N  59,Imoveis com Danos/Risco,0,-8.0650497,-34.88089118210441,False,1,0.0,0.0,12.0,URBANO,Baixa
8136441718,2018-11-08 09:35:00,09:35,SOLICITA UMA VISTORIA PARA UM CONJUNTO DE PRÉDIO CAIXÃO ANTIGOS. OS BLOCOS A/ B/ C/ E/ D ESTÃO COM VARIAS RACHADURAS COM A FERRAGEM A MOSTRA. FOI FEITO REFORMAS EM ALGUNS APARTAMENTOS SEM AUTORIZAÇÃO E COM ISSO DANIFICANDO A ESTRUTURA. AS CISTERNAS SAO EM BAIXO DAS ESCADAS. SOLICITA UMA VISTORIA TAMBÉM POIS INFORMA QUE ESTA DANIFICANDO APARTAMENTOS DO TÉRREO,IMBIRIBEIRA,IMBIRIBEIRA,RUA ENGENHEIRO JOSE BRANDAO CAVALCANTE    630,Imoveis com Danos/Risco,0,-8.0921642,-34.9144877,False,1,0.0,3.0,6.0,HP,Baixa
8010068015,2015-03-31 16:37:00,16:37,a usuária pede vistoria de um muro que foi construído pelo vizinho para proteger a barreira.favor verificar.,JORDAO,JORDAO ALTO,rua serra dourada,Muro com Danos,0,-8.1359088,-34.9425382,False,1,0.0,0.0,39.0,LVd2,Média
8035149722,2022-04-07 09:56:00,09:56,USUARIA SOLICITA DE UMA VISTORIA NO MURO DE ARRIMO QUE ESTA TENDO FILTRACOES,AGUA FRIA,CGO. DO DEODATO,RUA ALTOLANDIA N 27,Muro com Danos,0,-8.0127121,-34.8991025,False,1,0.0,2.3,39.0,URBANO,Média
8007354021,2021-01-29 11:11:00,11:11,"USUÁRIA SOLICITA VISTORIA, POIS AS CASAS ESTÃO COM VÁRIAS RACHADURAS, QUE DÁ PRA VER O OUTRO LADO. A MESMA INFORMA QUE ESCUTOU ESTALOS.",IBURA,IBURA DE BAIXO,"RUA FERNANDO TOMAZ DA SILVA, 05",Imoveis com Danos/Risco,0,-8.120031,-34.9362217,False,1,0.0,0.0,11.0,LVd2,Baixa
8060596717,2017-07-06 10:35:00,10:35,EQUIPE FEZ UM MURO DE ARRIMO E A VIZINHA REMOVEU CANOS QUE HAVIAM NELE.A ÁGUA ESTÁ DANIFICANDO O MURO PODENDO HAVER DESABAMENTO NO FUTURO.,JORDAO,JORDAO BAIXO,RUA RUA PARAUNA,Muro com Danos,0,-8.1278578,-34.9400194,False,1,0.2,23.0,60.0,LVd2,Média
8056351022,2022-05-29 05:12:00,05:12,A MESMA INFORMA QUE A SUA CASA ESTA COM RACHADURAS E A CASA FICA ENCOSTADA NA BARREIRA,DOIS UNIDOS,ALTO DA ESPERANCA,rua expedicionario laercio de mendonçla n.38,Imoveis com Danos/Risco,0,-7.9950047,-34.9151983,False,1,4.0,40.2,63.0,LVd4,Média
8120442719,2019-10-07 18:09:00,18:09,"usuário informa que cavaram a barreira um buraco e não para de jorrar água o mesmo solicita vistoria, porque corre risco de deslizamento.",NOVA DESCOBERTA,ALTO DA BRASILEIRA,rua travessa do cardoso n 372,Deslizamentos de Barreiras,1,-8.0011878,-34.9356901,False,1,0.0,0.0,82.0,LVd4,Média
8031223117,2017-04-13 12:06:00,12:06,usuária informa que casa esta com rachaduras e a casa dando estalos .urgencia,PASSARINHO,ALTO DA TELHA,rua beija flor 80 Vl N S da Conceição,Imoveis com Danos/Risco,0,-7.9850539,-34.9301988,False,1,5.2,56.0,61.0,LVd4,Média
8030922121,2021-04-11 13:02:00,13:02,"SOLICITA VISTORIA DE UM MURO POR TRÁS DA RESIDÊNCIA, INFORMA QUE ESTÁ RACHADO E PODE CAIR A QUALQUER MOMENTO.",CGO. DO JENIPAPO,CGO. DO JENIPAPO,"RUA ADOLFO CAMINHA , N 151",Muro com Danos,0,-8.0051749,-34.9358193,False,1,0.0,-1.0,31.0,LVd4,Média
8006772517,2017-01-25 13:35:00,13:35,"SOLICITA VISTORIA NO EDIFÍCIO MILAGRES POIS O IMÓVEL FIO INTERDITADO PELA DEFESA CIVIL, PORÉM, APÓS A DESAPROPRIAÇÃO DO LOCAL, MORADORES RETORNARAM AO LOCAL E ESTÃO FAZENDO ""REFORMAS"" QUE PODEM OFERECER RISCO AOS MORADORES E AO IMÓVEL.SOLICITA URGÊNCIA",JD. SAO PAULO,JD. SAO PAULO,RUA GUARULHOS,Imoveis com Danos/Risco,0,-8.0802006,-34.9427556,False,1,,,10.0,HP,Baixa
8070220821,2021-08-10 04:33:00,04:33,USUÁRIO INFORMA DESLIZAMENTO DE BARREIRA ENTRE UMA CASA E OUTRA ATRAPALHANDO A PASSAGEM NA ÁGUA NA CANALETA. O MESMO AFIRMA QUE NÃO ATINGIU NENHUM IMÓVEL.,JORDAO,JORDAO BAIXO,"RUA FLORESTAL, 114",Deslizamentos de Barreiras,1,-8.1382723,-34.9336442,False,1,0.8,15.3,38.0,LVd2,Média
8056026321,2021-06-24 11:46:00,11:46,USUÁRIO INFORMA QUE A BARREIRA DESLIZOU,IBURA,VILA DOS MILAGRES,"AV DES PEDRO RIBEIRO MALTA, 147",Deslizamentos de Barreiras,1,-8.107540199999999,-34.949931520289695,False,1,1.5,19.4,35.0,PV1,Média
8058760621,2021-07-05 11:00:00,11:00,"USUÁRIA TEM UM MURO DE ARRIMO QUE ESTA COM VAZAMENTO , POR CONTA DE UM VIZINHO QUE COLOCOU UM CANO DENTRO DO MURRO DE ARRIMO, COM ISSO ESTA ESCORRENDO AGUA PELO MURO, QUE ESTA INDO PARA SUA CASA. PEDE URGÊNCIA DE UMA VISTORIA NESSE MURO.",APIPUCOS,SERRA PELADA,2TR SERRA PELADA N 105,Muro com Danos,0,-8.0164549,-34.9376921,False,1,0.0,1.9,17.0,A2,Média
8054643521,2021-06-18 13:02:00,13:02,USUÁRIO SOLICITA POSSÍVEL ERRADICAÇÃO DE TRÊS COQUEIROS E UMA MANGUEIRA,NOVA DESCOBERTA,ALTO SANTA LUZIA,"RUA ALTO SANTA LUZIA, 94",Arvores em Risco,0,-8.0045467,-34.9326584,False,1,2.2,41.0,50.0,LVd4,Média
8017884616,2016-04-16 22:56:00,22:56,"USUÁRIA INFORMA QUE SUA CASA ESTÁ LAGADA DEVIDO A ENCHENTE DO RIO, E OLICITA URGÊNCIA",DOIS UNIDOS,DOIS UNIDOS,"RUA ISALTINO LOBO N, 124",Alagamentos,0,-7.9974518,-34.9108119,False,1,12.2,107.0,55.0,LVd4,Média
8052899218,2018-04-24 10:09:00,10:09,DESLIZAMENTO DE BARREIRA. SOLICITA LONAS COM URGÊNCIA,JORDAO,JORDAO BAIXO,RUA UBIRACI   25,Deslizamentos de Barreiras,1,-8.1312646,-34.9374056,False,1,0.8,2.0,34.0,LVd2,Média
8053102919,2019-05-08 21:01:00,21:01,"o usuario informa que o vizinho está realizando uma construção irregular (triplex), onde já caiu uma parte da parede,favor verificar.",ALTO JOSE DO PINHO,ALTO JOSE DO PINHO,"RUA   HORACIO SILVA, N 386",Imoveis com Danos/Risco,0,-8.0227304,-34.9072767,False,1,0.0,7.0,44.0,URBANO,Média
8076123816,2016-12-13 10:42:00,10:42,usuario ralata que a casa esta com rachaduras devido a infiltraçao de uma canaleta.,IBURA,27 DE NOVEMBRO,rua estudante arlindo almeida filho,Imoveis com Danos/Risco,0,-8.1158841,-34.9520235,False,1,0.0,0.0,70.0,LVd2,Média
