processo_numero,solicitacao_data,solicitacao_hora,solicitacao_descricao,solicitacao_bairro,solicitacao_localidade,solicitacao_endereco,processo_ocorrencia,confirmado,latitude,longitude,cond,em_recife
8091588219,2019-07-24,20:55,Usuário informa que a barreira está deslizando aos poucos e por conta das fortes chuvas o muro de arrimo próximo da casa está rachado e ameaçando cair. favor verificar com urgência,NOVA DESCOBERTA,ALTO JD. PROGRESSO,"rua sobral pinto, n 27",Muro com Danos,0,-8.0041901,-34.9260561,0.0,1
8019297519,2019-02-15,20:07,"A USUARIA INFORMA QUE NO LOCAL SE ENCONTRA RACHADURAS, NAS VIGAS, NA GARAGEM E CAIU UMA PARTE DO TETO NA PASSARELA DO CONDOMINIO,FAVOR VERIFICAR COM URGENCIA.",IBURA,IBURA DE BAIXO,"RUA   RIO NEGRO, N 117",Imoveis com Danos/Risco,0,-8.114174,-34.9373006,0.0,1
8038341017,2017-05-08,14:44,"USUÁRIO PEDE VISTORIA NESSA BARREIRA POIS ESTÁ OCORRENDO UM DESLIZAMENTO ,A MESMA ESTÁ OUVINDO ESTALOS,PEDE URGÊNCIA.",LINHA DO TIRO,CGO. DAS NEGAS,RUA BARÃO DE CARUARU N 99 C,Deslizamentos de Barreiras,1,-8.0067213,-34.9001406,0.0,1
8030989918,2018-03-11,10:52,"INFORMA QUE OUVE INCÊNDIO EM TODA CASA  ( TINHA QUATRO PESSOAS  NA CASA E FORAM QUEIMADAS ,UM ADULTO E TRÊS CRIANÇAS )NÃO SABE INFORMA ONDE COMEÇOU INCÊNDIO.",IBURA DE BAIXO,VILA DO SESI,RUA QUIMICO ALFEU RABELO  282,Imoveis com Danos/Risco,0,-8.1099746,-34.9388368,0.0,1
8100991718,2018-08-15,02:25,PROCURAR SR vALDIR OU EDNA. uSUÁRIA INFORMA QUE APÓS UM INCEDIO NAA RESIDENCIAS E DUAS DELAS ESTÃO COM A PAREDE RACHADA E COM RISCO DE DESABAMENTO.,JORDAO,JORDAO BAIXO,"AV GOVERNADOR ROBERTO SILVEIRA, 49",Imoveis com Danos/Risco,0,-8.131271,-34.9385074,0.0,1
8027011317,2017-04-02,10:09,"USUÁRIA SOLICITA VISTORIA DA BARREIRA E COLOCAÇÃO DE LONAS PLÁSTICAS, POIS POSSUI UM BURACO NA MESMA, O MURO ESTA RACHADO E A ÁGUA DA CANALETA QUE ESTA DANIFICADA ESTA INFILTRANDO PARA A BARREIRA.",GUABIRABA,ALTO DA GUABIRABA,RUA PRESIDENTE COSTA E SILVA N 4825,Muro com Danos,0,-7.9903783,-34.9324767,0.0,1
8050471518,2018-04-19,10:36,"USUÁRIO INFORMA QUE UM PRÉDIO N° 100 QUE FOI INTERDITADO PELA DEFESA CIVIL FOI INVADIDO VÁRIAS VEZES E TEVE SEU TELHADO ROUBADO, DEIXANDO O MESMO DESPROTEGIDO, CAUSANDO DANOS A ESTRUTURA PELO ACÚMULO DE ÁGUA QUE INFILTRA POR TODAS AS PAREDES E CAUSANDO UM GRANDE FOCO DE DENGUE.USUÁRIO DESEJA VISITA COM URGÊNCIA PARA QUE NÃO OCORRAM TRANSTORNOS OU DESASTRES",RECIFE,RECIFE,"RUA DO APOLO, 94",Imoveis com Danos/Risco,0,-8.061821850000001,-34.872424327443866,0.0,1
8055123521,2021-06-21,13:28,SOLICITA VISTORIA EM PRÉDIO CAIXÃO POIS APARECERAM RACHADURAS EM UM DOS APARTAMENTOS E NO CORREDOR DO PRIMEIRO ANDAR.,IPUTINGA,IPUTINGA,"RUA ENGENHEIRO MOACIR PARAHYBA, 79",Imoveis com Danos/Risco,0,-8.0398236,-34.9373458,0.0,1
8015891022,2022-02-17,11:39,SOLICITA UMA VISTORIA POIS INVADIRÃO TERRENO INTERDITADO PELA DEFESA CIVIL,IBURA,UR 02,AVENIDA RIO LARGO 151,Invasao de Terreno de Auxilio Moradia,0,-8.1192829,-34.9522759,0.0,1
8069464816,2016-11-10,11:31,USUARIA INFORMA QUE O MURO DE ARRIMO ANTIGO ABRIL FISSURA E ESTA CAINDO AGUA PELO MURO.,IBURA,UR 01,AV.RIO GRANDE N 37,Muro com Danos,0,-8.1200629,-34.9491955,0.0,1
8020982715,2015-07-09,17:44,"o usuario informa que estrutura da casa esta com vazamentos e rachaduras,favor verificar com urgencia.o mesmo informa que os bombeiros foram no local e pede o apoio da defesa civil.",AREIAS,AREIAS,RUA   JERONIMO INOJOSA,Imoveis com Danos/Risco,0,-8.0979661,-34.9323169,0.0,1
8080245321,2021-09-08,08:47,DENUNCIA QUE ESTÃO CONSTRUINDO UMA CASA NUM TERRENO QUE FOI INTERDITADO PELA DEFESA CIVIL  E ESTÃO CAVANDO A BARREIRA,VARZEA,ROSA SELVAGEM,RUA CIPRIANO SN,Invasao de Terreno de Auxilio Moradia,0,-8.0309104,-34.9777967,0.0,1
8091909319,2019-07-25,10:22,SRA. SOLICITA A VISTORIA POIS A BARREIRA CAIU E ATINGIU A RESIDÊNCIA.,CASA AMARELA,CASA AMARELA,RUA CONDO N 44,Deslizamentos de Barreiras,1,-8.0246343,-34.917753,0.0,1
8065084022,2022-06-09,11:52,"SR SOLICITA VISTORIA NO IMOVEL QUE FOI ATINGIDO PELO DESLIZAMENTO DA BARREIRA, TEVE A PORTA E A JANELA DA COZINHA DANIFICADA NO DESLIZAMENTO",IBURA,LAGOA ENCANTADA,RUA MARIANO CARNEIRO DA CUNHA N125,Imoveis com Danos/Risco,0,-8.1181962,-34.9495208,0.0,1
8056393422,2022-05-29,08:07,SOLICITA VISTORIA DEVIDO AS CHUVAS A CASA ESTA CHEIA DE RACHADURAS QUE DA PARA  VER O LADO DE FORA CASA,VASCO DA GAMA,ALTO DO EUCALIPTO,RUA CAMBORIU 430,Imoveis com Danos/Risco,0,-8.0073535,-34.9163898,0.0,1
8003228922,2022-01-11,10:35,"USUARIO INFORMA QUE MURO CAIU, DEVIDO A ISSO, A AGUA ESTA INFILTRANDO NA BARREIRARISCO DE CAIR. SOLICITA VISTORIAPRECISA DE LONA PLASTICA E CAPINAÇÃO.",IBURA,LAGOA ENCANTADA,"RUA CIENTISTA NELSON CHAVES, 04",Imoveis com Danos/Risco,0,-8.1293179,-34.9504865,0.0,1
8059551022,2022-06-01,11:24,SOLICITA VISTORIA BARREIRA DESLIZOU E ESTA  PROXIMO A CASA DO MORADOR E CANALETA DO MURO DE ARRIMO ESTA CAINDO E INFILTRANDO,IBURA,LAGOA ENCANTADA,AVENIDA DR BENIGNO JORDAO DE  VASCONCELOS 1225,Muro com Danos,0,-8.113521,-34.9528413,0.0,1
8067024917,2017-07-25,10:45,"USUÁRIA SOLICITA VISTORIA E COLOCAÇÃO DE LONA , INFORMA QUE A BARREIRA ESTA DESLIZANDO AOS POUCOS TODAS AS VEZES QUE CHOVE. PEDE URGÊNCIA.",IBURA,IBURA DE BAIXO,"RUA   AVELINO CHAVES N, 93",Deslizamentos de Barreiras,1,-8.1267987,-34.9352105,0.0,1
8061349121,2021-07-13,10:50,USUÁRIA SOLICITA RETIRADA DAS ÁRVORES DA BARREIRA,VARZEA,UR 07,"RUA CANDELÁRIA, 105",Arvores em Risco,0,-8.0348296,-34.9727681,0.0,1
8071186821,2021-08-11,11:31,"USUÁRIA SOLICITA VISTORIA, INFORMA QUE MURO DE ARRIMO ESTÁ DESABANDO.",FUNDAO,FUNDAO,"RUA AURIFLAMA, N 80",Muro com Danos,0,-8.0137864,-34.8900595,0.0,1
8038594716,2016-06-28,09:20,"USUIÁRIA SOLIICTA VISTORIA, CORTE DE BANANEIRAS E LONA EM BARREIRA COM URGÊNCIA.",NOVA DESCOBERTA,CGO. DO INACIO,RUA SUBIDA DONA COTINHA N. 85,Deslizamentos de Barreiras,1,-7.9972381,-34.9303751,0.0,1
8022084922,2022-03-07,16:45,USUÁRIO SOLICITA VISTORIA EM SUA RESIDENCIA EXISTE UMA PAREDE QUE ESTÁ COM RACHADURAS E INFILTRAÇÕES A PAREDE DA CASA ESTÁ PRATICAMENTE SOLTA E APRESENTANDO RISCO DE DESABAR A QUALQUER MOMENTO RESIDENCIA COM MAIS DE 6 ANOS DE CONSTRUÇÃO.,IBURA,LAGOA ENCANTADA,1 TRAVESSA JOVEM JOÃO SANTOS NETO N07,Imoveis com Danos/Risco,0,-8.116954549999999,-34.95209736849097,0.0,1
8021649015,2015-07-16,19:00,"a usuaria informa que a barreira da rua deslizou muito e esta muito prox de sua casa,favor verificar com urgencia.",NOVA DESCOBERTA,CGO. DO INACIO,RUA   IRACEMA,Deslizamentos de Barreiras,1,-7.9982441,-34.9297058,0.0,1
8018631021,2021-03-01,21:00,USUÁRIO INFORMA SOBRE MURO DE ARRIMO QUE FOI CONSTRUÍDO HÁ BASTANTE TEMPO E A SOLICITANTE NOTOU QUE O MESMO ESTÁ COM MUITOS INFILTRAÇÕES E ELA TEME QUE A ESTRUTURA ESTEJA COMPROMETIDA. FAVOR VERIFICAR.,VASCO DA GAMA,VASCO DA GAMA,"RUA COMPOSITOR JOSE DANTAS, 270",Imoveis com Danos/Risco,0,-8.0157625,-34.9222085,0.0,1
8028014222,2022-03-22,13:01,USUÁRIA INFORMA QUE RESIDENCIA ESTA TODA ALAGADA.,DOIS UNIDOS,DOIS UNIDOS,AV HIDELBRANDO N 37,Alagamentos,0,-7.9974518,-34.9108119,0.0,1
8032551416,2016-06-03,15:22,"A RUA ESTÁ ALAGADA, POREM MORADORES VÃO DESABAR O MURO E VAI OCASIONAR TRANSTORNOS QUE VAI INUNDAR O HOSPITAL LEITO RETAGUARDA (IMIP).",CASA FORTE,CASA FORTE,"RUA EDSON ALVARES, N 317",Alagamentos,0,-8.0336463,-34.9178852,0.0,1
8074861619,2019-06-13,15:04,"barreira deslizou ,invadiu a casa  quebrou tudo. a mesma solicita urgencia",IBURA,TRES CARNEIROS BAIXO,rua capricho n30,Deslizamentos de Barreiras,1,-8.1256948,-34.9548674,0.0,1
8074696519,2019-06-13,13:28,USUÁRIO INFORMA QUE ARVORE ESTA ARIANDO POR CIMA DAS RESIDENCIA.,DOIS UNIDOS,ALTO DO MARACANA,RUA DIVISOPOLIS N 167,Arvores em Risco,0,-7.9989151,-34.9139459,0.0,1
8058584122,2022-05-31,11:48,USUÁRIO INFORMA QUE TEVE UM DESLIZAMENTO DE GRANDE PORTE NO LOCAL!,DOIS UNIDOS,ALTO DO MARACANA,RUA MANOEL DE COELHO N. SN,Imoveis com Danos/Risco,0,-8.0044956,-34.9066946,0.0,1
8020437915,2015-07-06,22:30,"usuario solicita de uma lona , foram no local mas não colocaram a lona errada",NOVA DESCOBERTA,NOVA DESCOBERTA,rua Pitombinha n°220,Deslizamentos de Barreiras,1,-8.0032365,-34.9238021,0.0,1
8030285516,2016-05-30,07:45,USUARIO INFORMA QUE RIO TRASBORDOU E SEU IMOVEL ESTA TOLTAMENTE ALAGADO.,LINHA DO TIRO,CGO. DO TIRO,"RUA RIO CORRENTE, 32",Alagamentos,0,-8.0080906,-34.9078692,0.0,1
8083909021,2021-09-18,21:13,"USUÁRIA SOLICITA UMA VISTORIA, ELA INFORMA QUE HOUVE UM ACIDENTE ONDE UM CARRO ATINGIU UM MURO, ESSE MURO ESTÁ OFERECENDO RISCO AOS PEDESTRES.",SANTO AMARO,SANTO AMARO,CRUZ CABUGÁ N 1200,Muro com Danos,0,-8.04610165,-34.87512304299725,0.0,1
8035050221,2021-04-19,20:28,informa deslizamento de barreirae solicita colocacao de lona,NOVA DESCOBERTA,CGO. DO EUCALIPTO,"RUA PIRAPUI, 75",Deslizamentos de Barreiras,1,-8.0024567,-34.9230725,0.0,1
8025503816,2016-05-13,13:52,USUARIA SOLICITA A VISTORIA EM ARVORE EM RISCO DE QUEDA SOBRE A SUA RESIDENCIA,VASCO DA GAMA,VASCO DA GAMA,"RUA DR DURVAL N, 63",Imoveis com Danos/Risco,0,-8.011774,-34.919054,0.0,1
8091259919,2019-07-24,14:02,SR SOLICITA VISTORIA NA BARREIRA QUE DESLIZOU E A COLOCAÇAO DE LONAS E CAPINAÇAO,NOVA DESCOBERTA,CGO. DO BOLEIRO,RUA SUBIDA ALTO DA BRASILEIRA N 10,Deslizamentos de Barreiras,1,-8.0014099,-34.931535,0.0,1
8032522615,2015-10-26,15:34,"a usuaria informa que o vizinho esta fazendo uma construção irregular e esta gerando risco para o morador ao lado,favor verificar com urgencia.",JORDAO,JORDAO ALTO,rua garibaldinha,Imoveis com Danos/Risco,0,-8.1340722,-34.9423642,0.0,1
8138387819,2019-11-21,10:24,USUÁRIO INFORMA QUE O IMÓVEL ESTÁ COM VÁRIAS RACHADURAS E O RESPONSÁVEL NÃO TOMA AS PROVIDÊNCIAS.,ARRUDA,ARRUDA,"RUA DAS MOÇAS, 450",Imoveis com Danos/Risco,0,-8.0233364,-34.8871954,0.0,1
8069259022,2022-06-17,13:29,SOLICITA VISTORIA EM SUA RESIDÊNCIA INUNDADA DEVIDO AS ULTIMAS CHUVAS. E DERRUBOU O MURO AO LADO DE SUA CASA.,COQUEIRAL,COQUEIRAL,RUA GUANABARA 350 CASA 4,Imoveis Alagados,0,-8.0878287,-34.9682585,0.0,1
8047072419,2019-04-24,16:58,"Usuária solicita vistoria , porque a engenheira que foi informou que na próxima chuva forte vai desabar a barreira , a mesma solicita urgência.",IBURA,LAGOA ENCANTADA,Rua Empresario Ernesto ludring,Deslizamentos de Barreiras,1,-8.116954549999999,-34.95209736849097,0.0,1
8008624118,2018-01-19,10:15,"USUÁRIA SOLICITA COLOCAÇÃO DE LONA COM URGÊNCIA, INFORMA QUE A BARREIRA É GRANDE ESTA DESLIZANDO.",DOIS UNIDOS,DOIS UNIDOS,"RUA   VINTE E UM DE JUNHO N, 31",Deslizamentos de Barreiras,1,-7.9935716,-34.9156559,0.0,1
8039126716,2016-06-29,12:16,USUARIO INF QUE SUA BARREIRA ESTA COM RISCO DEVIDO A UMA ARVORE COM RISCO DE QUEDA,CGO. DO JENIPAPO,CGO. DO JENIPAPO,"RUA   ANTONIO DIAS ADORNO, 86",Arvores em Risco,0,-8.0055739,-34.9365368,0.0,1
8020043015,2015-07-04,09:28,USUÁRIA SOLICITA VISTORIA COM URGÊNCIA POIS HOUVE DESLIZAMENTO TOTAL DE IMÓVEL E DESLIZAMENTO DE BARREIRA COM RISCO DE PÉ DE CARAMBOLA CAIR POR SOBRE AS CASA DE BAIXO. URGÊNCIA.,NOVA DESCOBERTA,CGO. DA AREIA,RUA CÓRREGO DA AREIA N. 20,Deslizamentos de Barreiras,1,-7.9999358,-34.9268208,0.0,1
8018301416,2016-04-18,11:27,"USUÁRIO SOLICITA COLOCAÇÃO DE LONA, VISTORIA EM BARREIRA QUE ESTA DESLIZANDO E JORRANDO AGUA, O MURO JA VEIO AO CHÃO.. URGENTE. O MESMO INFORMA QUE EM CIMA DA BARREIRA TEM UMA CASA QUE ESTA COM RISCOS DE CAIR COM A BARREIRA E TEM UMA CASA EM BAIXO DA BARREIRA.",VASCO DA GAMA,VASCO DA GAMA,"RUA VASCO DA GAMA, N 1810 VIZINHO.",Muro com Danos,0,-8.011774,-34.919054,0.0,1
8049154316,2016-08-08,16:52,"USUÁRIO SOLICITA REPOSIÇÃO DE LONA POIS A QUE EXISTE NO LOCAL ESTÁ RASGADA, ATENDER COM URGÊNCIA.",MACAXEIRA,MACAXEIRA,RUA TRAV. ESTER N. 07 A,Deslizamentos de Barreiras,1,-8.0118867,-34.9311631,0.0,1
8125779019,2019-10-21,15:29,"SRA INFORMA QUE O VIZINHO TEM 5 PÉS DE ARVORES QUE FICA NUM TERRENO BALDIO NA BARREIRA, O MESMO ESTA MATANDO OS PÉS E ELES ESTAO COM RISCO DE CAIR SOBRE AS RESIDENCIAS",VARZEA,UR 07,RUA RIO GRAMAME,Imoveis com Danos/Risco,0,-8.0367005,-34.9776176,0.0,1
8059428717,2017-07-04,10:17,USUÁRIO INFORMA QUE POR TRAS DA SUA CASA HÁ BARREIRA ESTA CHEIA DE ARVORES E PLANTAS INCLINADAS COM AS RIZES DE FORA E A QUALQUER MOMENTO A BARREIRA PODE DESLIZAR POR CIMA DE OUTRA RESIDENCIA QUE TEM EM BAIXO,LINHA DO TIRO,CGO. DO TIRO,RUA PROFESSOR  AMARINO DOS REIS,Arvores em Risco,0,-8.0105195,-34.9073316,0.0,1
8051801918,2018-04-23,01:49,SARGENTO GENIVALDO DO CORPO DE BOMBEIROS ENTROU EM CONTATO PARA INFORMAR DESABAMENTO PARCIAL DA PARTE DE TRAZ DO PRIMEIRO ANDAR. O MESMO PEDE EQUIPE COM URGÊNCIA NO LOCAL. TELEFONE 88471399 FALAR COM CRESIA,AREIAS,AREIAS,"RUA DOS PRAZERES, 242",Desabamento Parcial Imoveis,0,-8.1010929,-34.9252615,0.0,1
8076192419,2019-06-16,22:23,"O USUARIO INFORMA QUE O POSTE DA RUA LOCALIZADO NA BARREIRA ESTÁ COM RISCO DE CAIR,FAVOR VERIFICAR COM URGENCIA.",IBURA,VILA DOS MILAGRES,"AV SAO  XAVIER, N 95",Postes em Risco,0,-8.1083445,-34.9518492,0.0,1
8043867421,2021-05-14,12:10,"USUÁRIA SOLICITA VISTORIA, INFORMA BARREIRA ESTÁ DESLIZANDO E ATINGIU SUA CASA, BARRO JÁ ESTÁ CHEGANDO NA PORTA.",PASSARINHO,ALTO SANTA TEREZA,"RUA LEAL, N 44",Deslizamentos de Barreiras,1,-7.9868429,-34.9247906,0.0,1
8040085319,2019-04-08,09:47,"sr. solicita a vistoria em um pé de coco que esta muito alto e carregado na barreira , podendo cair pede urgência.",CGO. DO JENIPAPO,CGO. DO JENIPAPO,rua alto três morros n 101,Arvores em Risco,0,-8.0086272,-34.9361484,0.0,1
8091804719,2019-07-25,09:22,USUÁRIO INFORMA SOBRE DESLIZAMENTO DE BARREIRA QUE ESTÁ PONDO VÁRIAS CASAS EM RISCO.FAVOR VERIFICAR POIS HÁ MUITAS FAMÍLIAS MORANDO NO LOCAL.,DOIS IRMAOS,CGO. DA FORTUNA,"RUA JOÃO LIMOEIRO, 148",Deslizamentos de Barreiras,1,-8.0095295,-34.9529667,0.0,1
8004849415,2015-02-24,09:49,"CIDADÃO SOLICITA VISTORIA EM BARREIRA ESTÁ CAINDO, INFORMA QUE TERRENO ESTÁ CEDENDO.",DOIS IRMAOS,SITIO DOS PINTOS,"RUA ALTO DA BOA ESPERANÇA, Nº 33",Deslizamentos de Barreiras,1,-8.0133304,-34.9585953,0.0,1
8058120920,2020-08-13,08:12,USUÁRIA SOLICITA UMA VISTORIA EM SUA RESIDENCIA POIS DEVIDO A UMA OBRA NA CASA AO LADO ESTA DEIXANDO SUA RESIDENCIA CHEIA DE RACHADURAS E ALGUMAS JÁ PASSA O DEDO SEU TELHADO ESTA TODO QUEBRADO DEVIDO A QUANTIDADE DE ENTULHO QUE ESTA CAINDO COM ISSO SOLICITA UMA EQUIPE NO LOCAL PARA VERIFICAR SE HA RISCO NO SEU IMÓVEL OBS: FOI GERADO NOVO PROTOCOLO POIS O PROTOCOLO:8056819520 FOI CANCELADO POIS EQUIPE NÃO ACHOU O ENDEREÇO AGORA FOI COLOCADO ENDEREÇO CORRETO FAVOR VERIFICAR,TORRE,TORRE,RUA Muqui SN,Imoveis com Danos/Risco,0,-8.0459083,-34.9167971,0.0,1
8034702618,2018-03-19,10:04,USUÁRIO INFORMA SOBRE UM DUPLEX ONDE SUA ESTRUTURA ESTÁ MUITO DANIFICADA ONDE HÁ VÁRIAS RACHADURAS E A FERRAGEM DA ESTRUTURA ESTÁ A MOSTRA.USUÁRIO PEDE VISTORIA,TORROES,TORROES,"RUA CAPITÃO GERALDO DE OLIVEIRA, 113",Imoveis com Danos/Risco,0,-8.0618637,-34.9360457,0.0,1
8039566321,2021-05-04,20:34,o teto da garagem afundou,BOA VIAGEM,BOA VIAGEM,"rua baltazar passos, 260",Imoveis com Danos/Risco,0,-8.1438751,-34.9071533,0.0,1
8002867117,2017-01-12,08:50,usuaria deseja a vistoria no local pois tem uma barreira caindo e com risco de desabar.,DOIS IRMAOS,SITIO SAO BRAS,rua do sitio sao braz,Imoveis com Danos/Risco,0,-8.0207478,-34.9558716,0.0,1
8069740022,2022-06-20,10:28,USUÁRIA PEDE VISTORIA EM SUA CASA DEVIDO A PRESEÇA DE RACHADURAS NAS VIGAS E PAREDES.,TORRE,TORRE,"RUA NAUA, N 37",Imoveis com Danos/Risco,0,-8.0425107,-34.9074638,0.0,1
8042754118,2018-04-05,12:44,ARVORE SECA INCLINANDO PARA A RESIDENCIA DO USUARIO ESTA EM RISCO DE QUEDA E VIZINHO INFORMA QUE NAO VAI ARRANCAR/ (VIZINHA DONA OLINA ),PASSARINHO,PASSARINHO ALTO,RUA VARZEA DO GILO  387,Arvores em Risco,0,-7.9859444,-34.9197858,0.0,1
8023196721,2021-03-15,08:09,SOLICITA VISTORIA EM ÁRVORES NA BARREIRA.,COQUEIRAL,ALTO DA BELA VISTA,"RUA DAS GOIABEIRAS, 58",Arvores em Risco,0,-8.1231298,-34.9413573,0.0,1
8027649422,2022-03-22,10:00,DESEJA VISTORIA NO MURO DA CASA QUE ESTA RACHADO AO MEIO E DESEJA SABER SE TEM RISCO.,BEBERIBE,PORTO DA MADEIRA,RUA PASCOAL SIVINE N 482,Muro com Danos,0,-8.0070244,-34.8883412,0.0,1
8113639717,2017-12-11,15:06,"USUARIA SOLICITA VISTORIA EM SUA RESIDENCIA QUE ESTA COM VARIAS RACHADURAS, INFORMA QUE FOI FEITA UMA OBRA AO LADO DE SUA RESIDENCIA, DEPOIS QUE FOI COMPLETADA A OBRA, QUE COMEÇOU A  APARECER AS RACHADURAS, AS CERAMICAS ESTAO SOLTAS E INFILTRAÇAO",JIQUIA,JIQUIA,RUA JUAREZ MILLET 280,Imoveis com Danos/Risco,0,-8.0891412,-34.922065,0.0,1
8056038317,2017-06-22,06:44,"USUÁRIA INFORMA QUE A CASA DE NÚMERO 57, NO QUAL O DONO, O SENHOR DIMAS ESTÁ RESIDINDO EM UMA CASA DE TAIPA QUE, CAIU AO LADO DIREITO DA BARREIRA. A MESMA INFORMA QUE A CASA ESTÁ RACHANDO E QUE APRESENTA RISCO PARA A LOCALIDADE, VISTO QUE O MESMO SE RECUSA A SAIR DA RESIDÊNCIA. FAVOR VERIFICAR",MACAXEIRA,BURITY,RUA SEGUNDA TRAVESSA ADOLFO CAMINHA,Desabamento Parcial Imoveis,0,-8.0167725,-34.92925013244986,0.0,1
8011439016,2016-03-17,11:03,USUARIA INF QUE ONTEM OCORREU DESLIZAMENTO. A MESMA PEDE URGENCIA,NOVA DESCOBERTA,NOVA DESCOBERTA,"RUA BARAO DE CAMAQUA, 120",Deslizamentos de Barreiras,1,-8.0062911,-34.9227154,0.0,1
8008322015,2015-03-18,07:33,"USUARIO INFORMA QUE ARVORE (PÉ DE JACA) ESTÁ TOMBANDO ENCIMA DE DUAS RESIDENCIAS QUE SÃO JUNTAS PONDENDO CAIR A QUALQUER MOMENTO E OCASIONAR ACIDENTE/DANOS AOS IMOVEIS QUE FICA SITUADO NO SITIO, FOI DISPONIBILIZADO MAIS UM Nº DE CONTATO 8218/9931 FAVOR VERIFICAR.",VASCO DA GAMA,VISGUEIRO,RUA VASCO DA GAMA Nº 1968,Tombamento de Arvores,0,-8.0052505,-34.9217532,0.0,1
8077888222,2022-07-08,14:01,USUÁRIA SOLICITA VISTORIA EM PREDIO DO TIPO PILOTES DE CINCO ANDARES POIS INFORMA QUE ESTA COM VARIAS RACHADURAS E INFILTRACOES.,IMBIRIBEIRA,IMBIRIBEIRA,RUA ZEFERINO PINHO N 950,Imoveis com Danos/Risco,0,-8.0985979,-34.9117565,0.0,1
8023265921,2021-03-15,10:47,USUARIO INFORMA QUE TEM UM PÉ DE ABACATE  QUE ESTA COM RISCO DE CAIR EM CIMA DA RESIDENCIA DE BAIXO.. PEDE URGENCIA DA EQUIPE NO LOCAL COM URGÊNCIA,IBURA,LAGOA ENCANTADA,RUA SANTA JOANA N 484,Arvores em Risco,0,-8.1279729,-34.9515488,0.0,1
8006971115,2015-03-09,08:29,"CASA MUITO PROX  DE UMA BARRIERA  E UM ABACATEIRO PRESTES A CAIR EM CIMA  DA RESIDENCIA, FAVOR FAZER VISTORIA NO LOCAL COM URGENCIA",NOVA DESCOBERTA,ALTO DO REFUGIO,"RUA SANTA BRIGIDA, 215",Arvores em Risco,0,-7.9933805,-34.9294712,0.0,1
8063982517,2017-07-14,11:29,USUARIO SOLICITA VISTORIA EM CARATER DE URGENCIA. O MURO DE ARRIMO QUE A MORADORA VIZINHA E ESTA COM INFILTRAÇÃO E ESTA COM RACHADURAS NA PAREDE DO MURO DE ARRIMO.,JORDAO,JORDAO ALTO,RUA SERRA TALHADA N 36,Muro com Danos,0,-8.1349328,-34.9453517,0.0,1
8011808616,2016-03-18,10:09,"USUÁRIO SOLICITA VISTORIA COM URGÊNCIA NAS RESIDENCIA POS A BARREIRA DELIZOU DERRUBOU 2 CASAS, SEM VITIMAS.",AGUA FRIA,CGO. JOAO FRANCISCO,"RUA VINTE UM , N,508",Deslizamentos de Barreiras,1,-8.0219419,-34.9019309,0.0,1
8039527622,2022-04-21,13:35,USUÁRIO INFORMAQUE VIZINHO ESTAVA CONSTRUINDO UM MURO DE ARRIMO EM UMA BARREIRA MURO DESABOU JUNTO COM BASTANTE BARRO E INFORMA QUE TEM DUAS RESIDENCIA NO LOCAL EM RISCO.,JORDAO,JORDAO BAIXO,RUA PROF JOSE CONSTANTINO DA SILVA N 185,Muro com Danos,0,-8.1394668,-34.9326745,0.0,1
8039478917,2017-05-10,12:21,USUÁRIO PEDE VISTORIA POIS O MURO ESTÁ RACHADO E TEM RISCO DE CAIR EM CIMA DE SUA CASA POIS UMA VEZ JÁ CAIU.,JORDAO,JORDAO ALTO,RUA SERRA DOURADA N 44,Muro com Danos,0,-8.1359088,-34.9425382,0.0,1
8056514622,2022-05-29,10:16,SOLICITA VISTORIA EM BARREIRA QUE DESLIZOU E TEM UMA ARVORE NA BARREIRA .SOLICITA COLOCAÇÃO DE LONA,IBURA,UR 01,RUA CONGONGI 183,Deslizamentos de Barreiras,1,-8.1181531,-34.9477458,0.0,1
8108071617,2017-11-23,10:26,"USUÁRIO SOLICITA VISTORIA NO MURO DE ARRIMO , INFORMA QUE ÁGUA DA CANALETA ESTA CAINDO EM CIMA DO MURO   E PERFURANDO  PEDE URGÊNCIA PARA O COM PARECIMENTO DA EQUIPE.",IBURA,UR 01,2TR  DA CORDILHEIRA,Muro com Danos,0,-8.1194021,-34.9452792,0.0,1
8044093420,2020-05-29,09:41,"usuaria informa que o prédio onde mora Edifício Casttelo de Ravena, esta apresentado rachaduras pela parede, no chao e teto , os moradores estão com bastante preocupados. pede urgência de uma vistoria no local.",CAMPO GRANDE,CAMPO GRANDE,RUA GONÇALVES DIAS n 179,Imoveis com Danos/Risco,0,-8.0380803,-34.8766145,0.0,1
8015708014,2014-09-12,11:32,"USUÁRIA SOLICITA REMOÇÃO DE BARROS, INFORMA QUE O BARRO DESLIZOU DA BARREIRA QUANDO ESTAVA CHONEDO E ESTA NA PARREDE DA CASA DA MESMA.",IBURA,LAGOA ENCANTADA,"RUA EMPRESARIO  ERNESTO LUNDGREN N, 95",Deslizamentos de Barreiras,1,-8.124922,-34.9526141,0.0,1
8091918219,2019-07-25,10:27,"barreira caiu , usuária chorando, pé de manda prestes a cair já esta colado com a casa da usuária ,correndo risco de atingir mais casas",MACAXEIRA,BURITY,rua yuri xavier pereira n 50,Arvores em Risco,0,-8.0167725,-34.92925013244986,0.0,1
8038579620,2020-04-17,14:57,usuário informa que estão construindo um segundo andar à beira da barreira e está com rachaduras.,COQUEIRAL,COQUEIRAL,RUA ALTO PIQUIRI,Imoveis com Danos/Risco,0,-8.0870115,-34.9715517,0.0,1
8069134620,2020-10-01,11:04,USUARIA INFORMA QUE UM VIZINHO ESTA FAZENDO UM 4° ANDAR SEM ESTRUTURA NENHUM A MESMA ESTA COM BASTANTE MEDO QUE ISSO VENHA DESABAR. PEDE URGÊNCIA DA EQUIPE NO LOCAL.,VASCO DA GAMA,VASCO DA GAMA,rua resplendor n 127,Imoveis com Danos/Risco,0,-8.0165386,-34.9239446,0.0,1
8060311922,2022-06-02,10:15,"USUÁRIO SOLICITA VISTORIA EM CASAS, LOCALIZADAS EM CIMA DAS BARREIRAS, QUE ESTÃO ABANDONADAS, POIS TEME QUE POSSAM DESABAR E ATINGIR AS CASAS DA AVENIDA.",IBURA,LAGOA ENCANTADA,"AV. DR. BENIGNO JORDÃO DE VASCONCELOS, N1055",Imoveis com Danos/Risco,0,-8.116954549999999,-34.95209736849097,0.0,1
8008443215,2015-03-18,16:05,"USUÁRIO SOLICITA VISTORIA EM IMOVEIS, INFORMA QUE O IMOVEL ESTÁ COM INFILTRAÇÕES E COM RACHADURAS, PEDE URGÊNCIA NO ATENDIMENTO.",IBURA,TRES CARNEIROS ALTO,"RUA IBIRANGA, N°111",Imoveis com Danos/Risco,0,-8.1265682,-34.9557155,0.0,1
8092182019,2019-07-25,13:43,DESEJA COLOCAÇÃO DE LONA NA BARREIRA INFORMA QUE A MESMA NÃO PRECISA DE CAPINAÇÃO,NOVA DESCOBERTA,CGO. DA AREIA,"R.  MAETINGA, N201",Arvores em Risco,0,-8.0021555,-34.9316941,0.0,1
8036751620,2020-04-01,10:16,"USUÁRIO SOLICITA VISTORIA EM UM PRIMEIRO ANDAR QUE ESTÁ COM RACHADURAS E INCLINADO, PODENDO CAIR A QUALQUER MOMENTO.",BRASILIA TEIMOSA,BRASILIA TEIMOSA,"Rua Espadarte, 44",Imoveis com Danos/Risco,0,-8.0838766,-34.8803365,0.0,1
8012513314,2014-08-03,16:16,vistoria em barreira devido a deslizamentos uusario inf que residencia esta muito prox da barreira solicita urgencia no atendimento teme acidentes,JORDAO,JORDAO BAIXO,rua belo oriente n°28,Deslizamentos de Barreiras,1,-8.1394854,-34.9348766,0.0,1
8059422522,2022-06-01,09:52,solicita vistoria em árvore.,GUABIRABA,ALTO DA GUABIRABA,"rua sub são gortado, 351b",Arvores em Risco,0,-7.9966528,-34.9325665,0.0,1
8055648922,2022-05-28,06:14,"USUARIO INFORMA QUE LAJE  VAI DESABAR,  TEM UMA CAIXA DÁGUA DE 1000 LITROS . SOLICITA VISTORIA.",LINHA DO TIRO,CGO. LEONCIO RODRIGUES,"RUA LEONCIO RODRIGUES, 539",Imoveis com Danos/Risco,0,-8.0028116,-34.9118954,0.0,1
8011025622,2022-02-03,16:25,"SOLICITA VISTORIA , INFORMA QUE UMA ÁRVORE EM CIMA DA BARREIRA ESTÁ PROVOCANDO RACHADURAS NA RESIDÊNCIA.",MACAXEIRA,MACAXEIRA,"RUA JORNALISTA SANEIVA DE VASCONCELOS, N 236",Imoveis com Danos/Risco,0,-8.0153058,-34.927381,0.0,1
8026164918,2018-02-27,17:34,"USUÁRIO SOLICITA VISTORIA PARA PRÉDIO DE 3 ANDARES TIPO CAIXÃO.EXISTEM RACHADURAS/INFILTRAÇÕES E O PRÉDIO ESTÁ EM OBRAS DE REESTRUTURAÇÃO,MAS ESTE MORADOR ESTÁ QUEBRANDO A PAREDE MORA NO 1 ANDAR.USUÁRIO SOLICITA VISTORIA.",ARRUDA,ARRUDA,ESTRADA VELHA DE ÁGUA FRIA 1029,Imoveis com Danos/Risco,0,-8.0268285,-34.8978912,0.0,1
8010426415,2015-04-07,14:22,"USUÁRIO SOLICITA VISTORIA MURO COM DANOS, INFORMA QUE 0 MURO DE SUA RESIDÊNCIA ESTÁ COM RACHADURAS E COM RISCO DE DESABAR, PEDE URGÊNCIA.",VARZEA,UR 07,"RUA ALEXANDRE DE CARVALHO, N°76",Muro com Danos,0,-8.0381958,-34.9862727,0.0,1
8021800222,2022-03-07,12:04,USUÁRIO SOLICITA VISTORIA EM MURO QUE DESABOU NA BARREIRA.,IBURA,LAGOA ENCANTADA,RUA DR BENIGMO JORDAO DE VASCONCELOS N 776,Deslizamentos de Barreiras,1,-8.116954549999999,-34.95209736849097,0.0,1
8069031922,2022-06-17,08:34,SOLICITA UMA VISTORIA O TETO CEDEU UMA PARTE,VARZEA,UR 07,RUA JOAO SALES DE MENEZES  N.167,Desabamento Parcial Imoveis,0,-8.0368258,-34.9503054,0.0,1
8070267421,2021-08-10,08:35,"USUARIO INFORMA CASA COLADA A SUA, COM RACHADURAS RISCO DE CAIR,SOLICITA VISTORIA.",VARZEA,UR 07,"RUA CABO VERDE, 90",Imoveis com Danos/Risco,0,-8.0368493,-34.9809381,0.0,1
8036216317,2017-05-03,08:52,"USUÁRIO SOLICITA RECOLOCAÇÃO DA LONAS PLÁSTICAS NA BARREIRA, NA NOITE PASSADA OCORREU UM PEQUENO DESLIZAMENTO PRÓXIMO AO MURO E O MESMO CAIU UM PEDAÇO E TEM OUTRO SOLTO.",IBURA,UR 10,RUA GUILHERME DE ALMEIDA N 98 A,Muro com Danos,0,-8.1363383,-34.9537224,0.0,1
8016266321,2021-02-25,10:23,USUARIA INFORMA QUE ESTA BARREIRA ESTA DESLIZANDO,IBURA,UR 03,RUA ENGENHO FELICIDADE N 11,Deslizamentos de Barreiras,1,-8.1134292,-34.9486122,0.0,1
8082299520,2020-11-24,07:46,"usuaria informa que o prédio esta apresentado rachaduras tanto no apartamento , no térreo no 1° andar .. e ja foi feito uma vistoria que foi identificado  risco  grau 04",CASA AMARELA,CASA AMARELA,rua padre lemos n 700,Imoveis com Danos/Risco,0,-8.0216304,-34.920579,0.0,1
8108927817,2017-11-24,18:27,"USUÁRIA INFORMA QUE SUA VIZINHA REALIZOU UMA CONSTRUÇÃO ONDE ELA APROVEITOU A PAREDE DA CASA DA SOLICITANTE, COM ISSO, ESSA PAREDE ESTÁ NECESSITANDO DE UNS REPAROS, MAS A VIZINHA NÃO ESTÁ DANDO A MÍNIMA PARA A SITUAÇÃO DE RISCO QUE APRESENTA. PEDE UMA VISITA TÉCNICA PARA QUE O ENGENHEIRO POSSA PASSAR O PROCEDIMENTO DE REPARO DA PAREDE.",PINA,PINA,RUA BARÃO DE SANTO ANGELO,Imoveis com Danos/Risco,0,-8.0881012,-34.8895915,0.0,1
8059932518,2018-05-08,10:49,"A USUARIA INFORMA QUE UMA PARTE DA BARREIRA ESTA QUERENDO DESLIZAR,FAVOR VERIFICAR.A MESMA PEDE A COLOCAÇÃO DE LONAS PLASTICAS.",VARZEA,UR 07,"RUA DR  SOLANO CARNEIRO DA CUNHA,N 98",Deslizamentos de Barreiras,1,-8.0335932,-34.9805271,0.0,1
8017168717,2017-03-03,16:25,"O SOLDADO DIOGO ENTRA EM CONTATO PARA INFORMAR UM INCENDIO NO LOCAL INFORMADO A PEDIDO DA SR ERICA NO CONDOMINIO VILA DA SUDENE, SEM VITIMAS. INFORMA QUE OS BOMBEIROS NECESSITA DE APOIO",IPSEP,IPSEP,"AVENIDA RAIMUNDO DE LINS, BL01",Incendios,0,-8.1102316,-34.9198993,0.0,1
8053131922,2022-05-25,11:14,USUÁRIO INFORMA QUE TEVE UM DESLIZAMENTO DE GRANDE PORTE NO LOCAL!E ACABOU ATINGINDO A CASA E DERRUBOU O MURO DA COZINHA!,IBURA,LAGOA ENCANTADA,RUA MARIANO CARNEIRO DA CUNHA N.01,Deslizamentos de Barreiras,1,-8.1181962,-34.9495208,0.0,1
8073294221,2021-08-17,11:53,USUÁRIO INFORMA QUE POSTE EM RUA ESTA COM RISCO DE QUEDA CIENTE DE LIGAR PARA CELPE,CGO. DO JENIPAPO,CGO. DO JENIPAPO,RUA ANTONIO DIAS ADORNO N 53,Postes em Risco,0,-8.0043665,-34.9359324,0.0,1
8003619316,2016-01-29,16:53,USUARIO INFORMA QUE HA UMA HORA ATRAS A ARVORE COMEÇOU A TOMBA COM A CHUVA E VENTOS FORTES. O MESMO PEDE URGENCIA.,GRACAS,GRACAS,RUA DO CUPIM 166,Tombamento de Arvores,0,-8.046435899999999,-34.89778549326414,0.0,1
8034571017,2017-04-26,10:38,solicita vistoria em muro de arimo pois esta com infiltração e houve construção em cima do muro*,JD. SAO PAULO,PLANETA DOS MACACOS,rua padre Jose 90,Muro com Danos,0,-8.0813153,-34.9540678,0.0,1
8069661816,2016-11-11,03:27,"FALAR COM LUCASO SD FARIAS INFORMA QUE TEVE UM INCÊNDIO NUMA LOJA COM APENAS UM PAVIMENTO, E SOLICITA A PRESENÇA DA DEFESA CIVIL NO LOCAL.",IBURA DE BAIXO,VILA DO SESI,"RUA PINTOR AGENOR DE ALBUQUERQUE, 305",Incendios,0,-8.1103211,-34.9418704,0.0,1
8020895715,2015-07-09,11:57,USUARIO SOLICITA UMA CAPINAÇÃO NA BARREIRA POIS POSSUI MUITO LIXO E MATOS NO LOCAL E SOLICITA TAMBEM UMA REPOSIÇÃO DE UMA LONA,VASCO DA GAMA,ALTO DO EUCALIPTO,"RUA PADRE SEVERINO, Nº 162",Deslizamentos de Barreiras,1,-8.1111283,-34.9625845,0.0,1
8009083421,2021-02-04,11:39,USUARIIO SOLICITA DE UMA VISTORIA NO LOCAL QUE ESTA CONSTRUINDO UM MURO QUE ESTA COM RISCO,DOIS IRMAOS,SITIO DOS PINTOS,AV LUIZ ANTONIO DE ARAUJO N 500,Muro com Danos,0,-8.0151403,-34.9573099,0.0,1
8046845317,2017-05-31,10:07,usuária informa que as barreiras de sua casa deslizou. a mesma solicita colocação de lona plástica.,NOVA DESCOBERTA,CGO. DO INACIO,"rua corrego do inacio, n 137.",Deslizamentos de Barreiras,1,-7.9972381,-34.9303751,0.0,1
8079660919,2019-06-24,17:48,"O USUARIO INFORMA QUE A BARREIRA FICOU DESCOBERTA DA ANTIGA LONA E INFORMA QUE A BARREIRA DESLIZOU UM POUCO,FAVOR VERIFICAR.",IBURA,VILA DOS MILAGRES,"RUA PADRE  HENRIQUE, N 04",Deslizamentos de Barreiras,1,-8.1048895,-34.9510838,0.0,1
8016831218,2018-02-05,15:01,"PRÉDIO MODELO CAIXÃO ESTA COM RACHADURAS. MORADORA ESCUTOU ESTALOS DURANTE A NOITE, TELHADO SOLTOU DO LUGAR, E MORADORES ESTÃO ACHANDO QUE PRÉDIO ESTA INCLINADO. SOLICITA EMERGÊNCIA",JD. SAO PAULO,JD. SAO PAULO,RUA ARTU BARRETO LINS    N 180,Imoveis com Danos/Risco,0,-8.0662752,-34.9362607,0.0,1
8074907619,2019-06-13,15:43,USUÁRIA INFORMA QUE MURO DESABOU E TEM UMA BARREIRA EM CIMA COM RISCO DE DESLIZAMENTO,COQUEIRAL,COQUEIRAL,RUA PLANURA N 80,Muro com Danos,0,-8.0854401,-34.9708879,0.0,1
8009620515,2015-03-27,09:58,/USUARIO SOLICITA VISTORIA EM TERRENO CONDENADO. O MESMO PEDE URGENCIA POIS A AREA É DE RISCO,IBURA,UR 02,"RUA   JOAO CORDEIRO DE SOUZA, 19",Invasao de Terreno de Auxilio Moradia,0,-8.1243469,-34.9504689,0.0,1
8063978422,2022-06-07,18:29,"informa que tinha um muro de arrimo e o muro caiu devido a um deslizamento de barreira, e agora apresenta um pe de manga com raiz exposta, caso caia, ira cair por cima de uma casa, informa que o muro que caiu atingiu a area de servico da casa, e com isso o muro que fica em volta da casa quebrou e quebrou telhas",DOIS IRMAOS,SITIO DOS PINTOS,"av luis antonio de araujo, 255b",Deslizamentos de Barreiras,1,-8.0156148,-34.9564053,0.0,1
8033950621,2021-04-16,09:32,"USUÁRIO SOLICITA VISTORIA, POIS A BARREIRA DESLIZOU E O BARRO ESTÁ ENCOSTADO NA PAREDE DA COZINHA",CGO. DO JENIPAPO,CGO. DO JENIPAPO,"SEGUNDA TRAVESSA ESTRADA RESERVATÓRIO, 220",Deslizamentos de Barreiras,1,-8.0086272,-34.9361484,0.0,1
8045096319,2019-04-18,11:05,USUÁRIO DENUNCIA UMA CONSTRUÇÃO DE VIGAS PARA COLOCAÇÃO DE LAJES. INRREGULAR QUE FICA ACIMA DA BARREIRA E ABAIXO ESTA COM RISCO EMINENTE E CAVANDO OS BURACOS PARA CONSTRUIR UMA CASA. FAVOR VERIFICAR,ALTO JOSE BONIFACIO,ALTO JOSE BONIFACIO,RUA ARY PETER SN,Imoveis com Danos/Risco,0,-8.0088608,-34.9135678,0.0,1
8031132617,2017-04-13,09:10,"HOUVE UM POUCO DE DESLIZAMENTO DA BARREIRA QUE É DE GRANDE PORTE, NECESSITA DE UMA VISTORIA E COLOCAÇÃO DE LONA",NOVA DESCOBERTA,ALTO DO REFUGIO,"RUA PESQUESEIRO, N 06",Deslizamentos de Barreiras,1,-7.999990950000001,-34.922825234477614,0.0,1
8032725216,2016-06-06,09:36,"USUARIA SOLICITA DE URGENCIA DA VISTORIA NESTA BARREIRA, E UMA LONA",ALTO JOSE BONIFACIO,ALTO JOSE BONIFACIO,RUA VISCONDE DE SA BANDEIRA N 137,Deslizamentos de Barreiras,1,-8.0097572,-34.9114864,0.0,1
8067381222,2022-06-14,10:52,SOLICITA VISTORIA ARVORE EM BARREIRA COM RISCO DE CAIR EM CIMA DA CASA DA MORADORA,IBURA,UR 02,RUA ALEXANDRE BELL 106,Arvores em Risco,0,-8.1164661,-34.9557903,0.0,1
8063731018,2018-05-16,10:51,DESEJA VISTORIA POIS A VIZINHA CAVOU UMA FOSSA NA BARREIA E VISTORIAR DA  BARREIRA PORQUE TEM UMA ARVORE AS RAÍZES ESTÃO  QUEBRANDO O PISO DA CASA DA MORADORA ( NA SALA),IBURA,TRES CARNEIROS ALTO,RUA GUAIRACA  45,Imoveis com Danos/Risco,0,-8.1240581,-34.9544661,0.0,1
8068507317,2017-07-28,12:15,SOLICITA VISTORIA POIS A CASA É DE PRIMEIRO ANDAR E ESTA COM UM BURACO NO TETO E RACHADURA. ESTAO COM MEDO DE QUE CAIA.,PINA,PINA,RUA JOSE PAES DE BARROS,Imoveis com Danos/Risco,0,-8.0904099,-34.8930623,0.0,1
8054413822,2022-05-26,13:49,"SR SOLICITA  A COLOCAÇAO DA LONA , CAPINAÇAO E A PODA DE UMA ARVORE QUE FICA NESSA BARREIRA",VASCO DA GAMA,CGO. DO CARUA,RUA PIRIZAL N121,Arvores em Risco,0,-8.0091928,-34.9183702,0.0,1
8035676918,2018-03-20,12:18,"USUARIO INFORMA QUE AS CASAS FORAM CONDENADAS, MAS OS PROPRIETARIOS VOLTARAM A MORAR E A BARREIRA FICA DESLIZANDO AOS POUCOS. DESEJA VISTORIA TAMBEM PARA A BARREIRA, POIS O CAMINHO DE PASSAGEM ESTA MUITO ESTREITO, POR CONTA DOS DESLIZAMENTOS. PEDE URGENCIA",MACAXEIRA,MACAXEIRA,RUA DULCINEIA 77,Invasao de Terreno de Auxilio Moradia,0,-8.0101351,-34.9351472,0.0,1
8015137214,2014-09-08,16:45,"A USUARIA SOLICITA REPOSIÇAO DE LONAS PLASTICAS,FAVOR VERIFICAR COM URGENCIA.A MESMA INFORMA QUE JA ENCONTRA/SE RASGADAS A LONA ANTERIOR.",DOIS UNIDOS,CGO. DO CURIO,"RUA CGO. DO CURIO,N°126",Deslizamentos de Barreiras,1,-8.000652850000002,-34.915896439373704,0.0,1
8040137916,2016-07-04,11:05,usuario solicita de uma lona na barreira,MACAXEIRA,BURITY,rua ester n  202,Deslizamentos de Barreiras,1,-8.0076603,-34.93352,0.0,1
8045916420,2020-06-09,19:34,"USUÁRIO INFORMA QUE A CASA DO ENDEREÇO CITADO , QUE É DA SUA AVÓ, ESTÁ COM RACHADURAS E POR CONTA DISSO O IMÓVEL ESTÁ SOFRENDO COM INFILTRAÇÕES, DEIXANDO A CASA ALAGADA. FAVOR VERIFICAR COM URGÊNCIA",PINA,PINA,"AVENIDA HERCULANO BANDEIRA, N 306",Imoveis com Danos/Risco,0,-8.0845501,-34.8892383,0.0,1
8021861915,2015-07-18,15:11,"o usuario informa que no local se encontra uma arvore com risco de queda,favor verificar com urgencia.o mesmo informa que fica na barreira.",VARZEA,BARREIRAS,RUA   AGUA CLARA,Arvores em Risco,0,-8.0246368,-34.9632242,0.0,1
8011442514,2014-07-17,13:39,"USUÁRIO SOLICITA REPOSIÇÃO DE LONA, INFORMA QUE PEDAÇOS DA BARREIRA ESTÁ CEDENDO E ESTÁ SE FORMANDO UMA CRATERA NO QUAL POEM EM RISCO SUA RESIDÊNCIA QUE SE LOCALIZA ABAIXO, SOLICITA URGÊNCIA.",NOVA DESCOBERTA,CGO. DO INACIO,"RUA DOM FELICIANO, N°100",Deslizamentos de Barreiras,1,-7.9968516,-34.9316188,0.0,1
8086430721,2021-09-27,11:54,"O USUARIO INFORMA QUE EXISTE UMA PLACA GRANDE COM 5 METROS DE COMPRIMENTO EM CIMA  DA LOJA LINK FESTAS QUE ESTA COM RISCO EMINENTE DE CAIR E CAUSAR ACIDENTES GRAVES,FAVOR VERIFICAR COM URGENCIA.",PINA,PINA,"RUA AMAZONAS, N 376",Imoveis com Danos/Risco,0,-8.099475,-34.8852336,0.0,1
8018378915,2015-06-29,04:51,"USUÁRIO SOLICITA A VISTORIA NA BARREIRA DEVIDO A UM DESLIZAMENTO QUE OCORREU, O POSTE PRÓXXIMO A BARREIRA QUASE SOFRE DANOS PODENDO VIR A CAIR.",BREJO DA GUABIRABA,ALTO DAS PEDRINHAS,"RUA SERRA VERDE, Nº 295",Deslizamentos de Barreiras,1,-8.0142691,-34.9241833,0.0,1
8031394017,2017-04-17,06:17,SR DANILO INFORMA QUE SUA BARRIRA ESTA DESLIZANDO NESSE MOMENTO E O MESMO DESEJA QUE A EQUIPE COMPAREÇA AO LOCAL O MAIS RÁPIDO POSSÍVEL.,IBURA,TRES CARNEIROS BAIXO,"RUA AZULADO, 10",Deslizamentos de Barreiras,1,-8.125607,-34.954763,0.0,1
8067031321,2021-07-30,11:19,"USUÁRIA SOLICITA VISTORIA, INFORMA QUE A BARREIRA ESTA DESLIZANDO E QUE O LOCAL ESTÁ FICANDO SEM PASSAGEM.",ALTO JOSE BONIFACIO,ALTO JOSE BONIFACIO,"RUA DR BENEVENUTO TELES NETO, N 80",Deslizamentos de Barreiras,1,-8.0111889,-34.9127639,0.0,1
8067804417,2017-07-27,09:33,USUÁRIO SOLICITA QUE SEJA FEITO UMA VISTORIA NA SUA RESIDENCIA POIS AFIRMA QUE DESDE QUE COMEÇOU AS CHUVAS VEM SURGINDO RACHADURAS NAS PAREDES E NA LAJE QUANDO CHOVE ESTA TENTO INFILTRAÇÃO,VASCO DA GAMA,ALTO DO EUCALIPTO,PRIMEIRA TRAVESSA DO ALTO DO EUCALIPTO,Imoveis com Danos/Risco,0,-8.1111283,-34.9625845,0.0,1
8021665018,2018-02-19,11:01,DESEJA VISTORIA EM BARREIRA POIS TEM PÉ DE COCO QUE AMEAÇA QUEDA E VIZINHA CONSTRUÇÃO DE MURO EM BARREIRA,PASSARINHO,CGO. DA BICA,RUA SANTA TEREZA DO CANAÃ 38,Muro com Danos,0,-7.9866233,-34.9287523,0.0,1
8063143022,2022-06-07,08:44,"USUARIO INFORMA DESLIZAMNETO DE BARREIRA, BARRO ESTA NA PAREDE, JA TEM VARIOS PROTOCOLOS.  TEM ARVORE  EM RISCO  DE CAIR SOBRE A CASA SOLICITA ERRADICAR.SOLICITA VISTORIA.",PASSARINHO,ALTO SO NOS DOIS,"RUA SÓ NOS DOIS, 103",Arvores em Risco,0,-7.9907608,-34.9270968,0.0,1
8050477520,2020-07-07,10:46,"USUÁRIO INFORMA SOBRE ÁRVORE EM RISCO, MUITO INCLINADA, POR TRÁS DA CASA DE UMA SENHORA IDOSA  QUE OFERECE RISCO DE QUEDA E DANO A SUA CASA. FAVOR VERIFICAR.",BARRO,BARRO,"RUA SANTA MARIA, 227",Arvores em Risco,0,-8.0904172,-34.9417421,0.0,1
8003960517,2017-01-16,16:41,INFILTRAÇÃO NO MURO DE ARIMO E CASA ACIMA RISCO DE QUEDA,NOVA DESCOBERTA,CGO. DO ARCANJO,RUA NACIPE RAIDAN  97,Imoveis com Danos/Risco,0,-8.0055139,-34.9251502,0.0,1
8086888517,2017-09-23,11:49,OUVE UM ABALO NA ESTRUTURA DA FACULDADE E USUÁRIO PEDE UMA VISITA COM URGÊNCIA NO LOCAL PARA PODER SABER SE CORRE O RISCO OU NÃO A ESTRUTURA CAIR E SE PODE VOLTAR AS AULAS,MADALENA,MADALENA,AV ABDIAS DE CARVALHO N 00,Imoveis com Danos/Risco,0,-8.0620284,-34.9096102,0.0,1
8038282320,2020-04-16,11:08,USUÁRIO INFORMA QUE EXISTE UM PÉ DE COCO QUE ESTA PRESTES A DESABAR EM CIMA DE SUA CASA.,DOIS UNIDOS,ALTO DO ROSARIO,RUA VERTENTE DO LERIO N73,Arvores em Risco,0,-7.988553550000001,-34.92232574738948,0.0,1
8020551021,2021-03-05,09:45,USUÁRIO INFORMA QUE TEM UMA ARVORE QUE FICA NA BARREIRA QUE ESTA COM MUITO RISCO DE CAIR. O MESMO TAMBÉM SOLICITA DE UMA LONA PARA BARREIRA,ALTO JOSE BONIFACIO,ALTO JOSE BONIFACIO,RUA CORREGO DO EUCLIDES N 1970,Arvores em Risco,0,-8.0079644,-34.9123279,0.0,1
8023306215,2015-07-28,17:12,a usuaria informa que a lona da barreira arriou e a barreira houve deslizamento.favor verificar com urgencia.contt: 86694739.,DOIS IRMAOS,SITIO DOS PINTOS,rua antonio felipe,Deslizamentos de Barreiras,1,-8.0177478,-34.9545975,0.0,1
8001161817,2017-01-05,13:48,usuario solicita urgencia em uma vistoria pois existem duas arvores grandes em sua barreira que oferecem risco de cair em sua casa.,NOVA DESCOBERTA,CGO. DO LEONCIO,RUA CORREGO DO LEONCIO,Arvores em Risco,0,-8.0026164,-34.9278948,0.0,1
8103099821,2021-11-21,18:47,"usuaria informa que contratou pedreiro particular, informa que imovel nao tem cinta amarracao informa que casa foi feito com areia e informa que casa tem risco pois ja tem rachadura, e de acordo com analise dele acredita que em ate 5 anos o imovel deve desabar. a mesma informa que todos os imoveis no prive esta com o mesmo problema. informa que ate entao construtora esta tentando fazer reparosinforma que tem rachadura no teto, caiu cerca de 50 cm de teto, caiu pedaco do teto do banheiro tambem",IPUTINGA,IPUTINGA,"rua nossa senhora da saude, 271",Imoveis com Danos/Risco,0,-8.0412285,-34.9274507,0.0,1
8019017015,2015-06-30,08:48,SOLICITA/SE VISTORIA EM CASA ABANDONADA ONDE ESTA COM RISCO DE DESABAR TOTALMENTE COLOCANDO EM RISCO TRANSEUNTES E IMÓVEIS AO LADO. PEDE BREVIDADE UMA VEZ QUE LOCAL É BASTANTE MOVIMENTADO.,SANTO AMARO,SANTO AMARO,AV CRUZ CABUGÁ,Imoveis com Danos/Risco,0,-8.0432225,-34.8738253,0.0,1
8033308221,2021-04-14,20:06,USUÁRIO INFORMA QUE A BARREIRA EM FRENTE A SUA CASA NÃO TEVE COLOCAÇÃO DE LONAS E A MESMA DESLIZOU EM PEQUENA PROPORÇÃO. SOLICITA VISTORIA PARA AVALIAR O RISCO.,MACAXEIRA,MACAXEIRA,"RUA PEDRO TOLEDO, 135",Imoveis com Danos/Risco,0,-8.010048,-34.9343535,0.0,1
8077764122,2022-07-08,11:06,USUARIA INFORMA QUE SUA RESIDENCIA ESTA APRESENTANDO RACHADURAS E FILTRAÇOES . PEDE URGENCIA DE UMA EQUIPE PARA VERIFICAR ESSA SITUAÇAO,BRASILIA TEIMOSA,BRASILIA TEIMOSA,RUA PARU N 245,Imoveis com Danos/Risco,0,-8.0831642,-34.8795439,0.0,1
8024965421,2021-03-19,13:21,USUÁRIO SOLICITA COLOCAÇÃO DE LONAS PLÁSTICAS EM BARREIRA. PRECISA CAPINAR. A BARREIRA ESTÁ COM PEQUENOS DESLIZAMENTOS.,NOVA DESCOBERTA,CGO. DA AREIA,SEGUNDA SUBIDA DO RATINHO N  13,Deslizamentos de Barreiras,1,-7.9999177,-34.9269306,0.0,1
8044785019,2019-04-17,13:20,"Usuário solicita  colocar lona, ocorreu um deslizamento essa semana e o mesmo esta com medo que aconteça novamente e caia em sua casa.",VARZEA,UR 07,Rua são vicente de paula,Deslizamentos de Barreiras,1,-8.0332034,-34.9795179,0.0,1
8017668116,2016-04-16,13:06,"USUÁRIA SOLICITA UMA VISTORIA EM SUA CASA, POIS A MESMA ESTA ALAGADA. URGENTE. A MESMA NÃO PODE FICAR NO LOCAL.",CAXANGA,CAXANGA,"RUA DR ROMERO MARQUES, N 16.",Imoveis Alagados,0,-8.0271425,-34.954313,0.0,1
8075168620,2020-10-27,13:36,"USUÁRIA SOLICITA VISTORIA NA SUA CASA, INFORMA QUE VIZINHA DE CIMA POSSUI ENCANAÇÃO QUE ESTÁ CAUSANDO VAZAMENTO EM TODA A CASA. INFORMA QUE A ÁGUA ESCORRE POR TODAS AS PAREDES E JÁ CAUSOU DANOS EM MUITOS OBJETOS.",IBURA,TRES CARNEIROS ALTO,"RUA CURUCA, 50",Imoveis com Danos/Risco,0,-8.1244791,-34.9595487,0.0,1
8038264517,2017-05-08,13:51,"ARVORE DE GRANDE PORTE SITUADA EM BARREIRA, NECESSITA DE VISTORIA POIS ESTÁ HAVENDO DESLIZAMENTO PARCIAL DA BARREIRA AO DECORRER DAS CHUVAS, REQUER URGENCIA.",PASSARINHO,CGO. DA BICA,"3 SUBIDA ALTO SANTA TEREZINHA, N 567",Deslizamentos de Barreiras,1,-7.9866233,-34.9287523,0.0,1
8022622218,2018-02-20,11:42,USUÁRIO INFORMA QUE QUE HÁ UMA ARVORE CAÍDA NA BARREIRA E OUTRAS TRÊS INCLINADA PARA AS RESIDENCIA E PARA A REDE ELÉTRICA COM ISSO PEDI URGÊNCIA POIS COM AS CHUVAS E OS VENTOS AS DEMAIS PODEM CAIR A QUALQUER MOMENTO,VARZEA,UR 07,RUA DIOGENES SAMPAIO N 896,Arvores em Risco,0,-8.0348029,-34.9592525,0.0,1
8028329521,2021-04-01,09:14,"SOLICITA VISTORIA EM CONSTRUÇÃO QUE AMEAÇA CAIR SOBRE IMÓVEIS PRÓXIMOS, INFORMA QUE PILASTRAS E PAREDES CONSTRUÍDAS RECENTEMENTE JÁ CHEGARAM A CAIR E FORAM LEVANTADAS NOVAMENTE.",AFLITOS,AFLITOS,RUA TEIXEIRA PINTO,Imoveis com Danos/Risco,0,-8.0406777,-34.8986361,0.0,1
8038296221,2021-04-30,09:46,USUÁRIA INFORMA QUE APARECERAM VARIAS RACHADURAS NO CHÃO DO TERIO DA PROCURADORIA.,AFLITOS,AFLITOS,AV CONSELHEIRO PORTELA N 531,Imoveis com Danos/Risco,0,-8.0397371,-34.892277,0.0,1
8082318020,2020-11-24,09:17,"EDF COM PILOTIS COM VÁRIAS RACHADURAS EM QUE É POSSÍVEL COLOCAR A MÃO DENTRO, BEIRAIS QUEBRANDO E CAIXA D'ÁGUA AMEAÇANDO CAIR. USUÁRIA INFORMA TAMBÉM QUE UM MORADOR ESCUTOU UM ESTRONDO E INFORMOU A SOLICITANTE.",AFLITOS,AFLITOS,"AV SANTOS DUMONT, 400",Imoveis com Danos/Risco,0,-8.0376589,-34.8983145,0.0,1
8082934220,2020-11-25,15:41,"USUÁRIO SOLICITA VISTORIA NO PRÉDIO, INFORMA QUE ESTÃO FAZENDO OBRAS SEM ACOMPANHAMENTO DEVIDO , PONDO EM RISCO A ESTRUTURA E O IMÓVEL JÁ APRESENTA RACHADURAS .",AFLITOS,AFLITOS,"RUA DA ANGUSTURA , N 84",Imoveis com Danos/Risco,0,-8.0420189,-34.8972451,0.0,1
8146602119,2019-12-10,08:23,"USUÁRIO INFORMA QUE O SÍNDICO ESTÁ REALIZANDO UMA OBRA IRREGULAR EM SEU PRÉDIO, ""SEM ESCORAMENTO"", COLOCANDO A ESTRUTURA DO MESMO EM RISCO. FAVOR VERIFICAR",AFLITOS,AFLITOS,"RUA CARNEIRO VILELA, 343",Imoveis com Danos/Risco,0,-8.0385466,-34.8967128,0.0,1
8146604419,2019-12-10,08:23,"USUÁRIO INFORMA QUE O SÍNDICO ESTÁ REALIZANDO UMA OBRA IRREGULAR EM SEU PRÉDIO, ""SEM ESCORAMENTO"", COLOCANDO A ESTRUTURA DO MESMO EM RISCO. FAVOR VERIFICAR",AFLITOS,AFLITOS,"RUA CARNEIRO VILELA, 343",Imoveis com Danos/Risco,0,-8.0385466,-34.8967128,0.0,1
8112538919,2019-09-17,16:36,"USUÁRIO SOLICITA VISTORIA, INFORMA QUE SUA RESIDENCIA  ESTÁ APRESENTANDO RACHADURAS , POR CAUSA DE UMA OBRA QUE ESTÁ TENDO PRÓXIMO.",AFLITOS,AFLITOS,"AV SANTOS DUMONT , N 290",Imoveis com Danos/Risco,0,-8.0386108,-34.8987411,0.0,1
8077330119,2019-06-17,18:51,"A USUARIA INFORMA QUE UM PREDIO DE 3 ANDARES PILOTIS ESTÁ APRESENTANDO RACHADURAS E INFILTRAÇÕES,FAVOR VERIFICAR COM URGENCIA.",AFLITOS,AFLITOS,"RUA   MANUEL DE CARVALHO, N 179",Imoveis com Danos/Risco,0,-8.0407928,-34.8958047,0.0,1
8129200818,2018-10-22,10:01,"SOLICITANTE É SÍNDICA DO PRÉDIO E INFORMA QUE UM DOS ORADORES SE QUEIXOU DE QUE O SEU APARTAMENTO ESTÁ ""BALANÇANDO"" SOLICITA VISTORIA NA ESTRUTURA PARA DESCARTAR POSSÍVEIS PERIGOS.NENHUM DOS OUTROS MORADORES SE QUEIXOU DO PROBLEMA.",AFLITOS,AFLITOS,"AV CONS. ROSA E SILVA, 257",Imoveis com Danos/Risco,0,-8.0416438,-34.8980743,0.0,1
8129202018,2018-10-22,10:01,"SOLICITANTE É SÍNDICA DO PRÉDIO E INFORMA QUE UM DOS ORADORES SE QUEIXOU DE QUE O SEU APARTAMENTO ESTÁ ""BALANÇANDO"" SOLICITA VISTORIA NA ESTRUTURA PARA DESCARTAR POSSÍVEIS PERIGOS.NENHUM DOS OUTROS MORADORES SE QUEIXOU DO PROBLEMA.",AFLITOS,AFLITOS,"AV CONS. ROSA E SILVA, 257",Imoveis com Danos/Risco,0,-8.0416438,-34.8980743,0.0,1
8058324118,2018-05-04,10:06,USUÁRIO INFORMA QUE AO LADO DE SUA CASA HÁ UM PRÉDIO ABANDONADO ONDE PEDAÇOS DO MESMO CAEM CONSTANTEMENTE EM SEU TELHADO.USUÁRIO TEME PELA ESTRUTURA DO PRÉDIO E DESEJA VISTORIA PARA AVALIAR O ROSCO QUE O MESMO REPRESENTA,AFLITOS,AFLITOS,"RUA CARNEIRO VILELA, 700",Imoveis com Danos/Risco,0,-8.0377887,-34.8981208,0.0,1
8070311517,2017-08-03,09:10,deseja vistoria em muro com risco de queda no prédio e pedestres  porem o terreno esta  abandonado,AFLITOS,AFLITOS,avenida santos Dumont  387,Muro com Danos,0,-8.0386188,-34.8989265,0.0,1
8038156817,2017-05-08,12:25,"DESEJA VISTORIA ,ARVORE CAIU EM CIMA DO PRÉDIO  DANIFICANDO IMÓVEL ,OCASIONOU RACHADURAS NO 2º ANDAR .urgência!",AFLITOS,AFLITOS,AV SANTOS DUMONT 429,Imoveis com Danos/Risco,0,-8.0371417,-34.89857848780741,0.0,1
8038156817,2017-05-08,12:25,"DESEJA VISTORIA ,ARVORE CAIU EM CIMA DO PRÉDIO  DANIFICANDO IMÓVEL ,OCASIONOU RACHADURAS NO 2º ANDAR .urgência!",AFLITOS,AFLITOS,AV SANTOS DUMONT 429,Tombamento de Arvores,0,-8.0371417,-34.89857848780741,0.0,1
8012686017,2017-02-14,11:50,PREDIO ABANDONADO COM MURO PRESTES A CAIR.,AFLITOS,AFLITOS,RUA TELIS JUNIOR,Muro com Danos,0,-8.0392007,-34.8967064,0.0,1
8046976216,2016-08-01,10:28,TESTE SOLICITADO POR SUPERVISORA RENATA MARIA.,AFLITOS,AFLITOS,RUA 01,Deslizamentos de Barreiras,1,-8.0389876,-34.895841,0.0,1
8017416216,2016-04-16,08:49,"edf. Montenegro esta rachado e  pode cair, uma parte do muro já caiu e está impedindo o acesso de dentro do prédio para moradores e carros.",AFLITOS,AFLITOS,av. santos dumont,Muro com Danos,0,-8.0386188,-34.8989265,0.0,1
8017416216,2016-04-16,08:49,"edf. Montenegro esta rachado e  pode cair, uma parte do muro já caiu e está impedindo o acesso de dentro do prédio para moradores e carros.",AFLITOS,AFLITOS,av. santos dumont,Desabamento Parcial Imoveis,0,-8.0386188,-34.8989265,0.0,1
8038244815,2015-12-15,09:51,USUÁRIA SOLICITA VISTORIA NA CAIXA D´ÁGUA DO ED. DO BLOCO B. A MESMA INFORMA QUE A CAIXA ESTA COM (RACHADURAS E VAZAMENTOS). A QUAL ESTA TRAZENDO RISCOS PARA OS MORADORES.,AFLITOS,AFLITOS,"AV. ROSA E SILVA, N 257.",Imoveis com Danos/Risco,0,-8.0392007,-34.8967064,0.0,1
8028708115,2015-09-15,11:51,"usuário informa que um vizinho esta fazendo um serviço no prédio , quebrando a parede , pede urgência de uma fiscalização",AFLITOS,AFLITOS,RUA   CARNEIRO VILELA n 343,Desabamento Parcial Imoveis,0,-8.0385466,-34.8967128,0.0,1
8001316515,2015-01-14,15:05,"USUÁRIO SOLICITA VISTORIA DE IMÓVEL, INFORMA QUE UM PEDAÇO DA VARANDO DO EDIFÍCIO DESABOU DO 10° ANDAR, O MESMO NÃO CAIU EM CIMA DE NENHUM CIDADÃO, SOLICITA URGÊNCIA.",AFLITOS,AFLITOS,"RUA DO FUTURO, N°897",Imoveis com Danos/Risco,0,-8.037962,-34.90298172173615,0.0,1
8016504914,2014-09-24,07:22,A USUÁRIA INFORMA QUE O PRÉDIO ESTAR COM RACHADURAS E CAINDO OS PEDAÇOS E COM FERROS EXPOSTO E COM FILTRAÇÃO DE ÁGUA.....,AFLITOS,AFLITOS,AV SANTOS DOMON Nº455,Imoveis com Danos/Risco,0,-8.0392007,-34.8967064,0.0,1
8079237922,2022-07-13,11:14,SOLICITA A VISTORIA POIS A CASA ESTA RACHADA E DISTANCIA MAIS DE UM DEDO,AFOGADOS,AFOGADOS,RUA SANTO CRISTO N. 40,Imoveis com Danos/Risco,0,-8.0820522,-34.9134524,0.0,1
8079225022,2022-07-13,10:58,solicita vistoria no imóvel. informa rachaduras onde é possível colocar um dedo. pede que entrem em contato para confirma hora e dia.,AFOGADOS,AFOGADOS,"rua santo cristo, 159",Imoveis com Danos/Risco,0,-8.0818659,-34.9121245,0.0,1
8079697022,2022-07-14,12:10,vistoria  usuária solicita vistoria no local na sua residência pois a mesma perdeu todos os moveis na chuva.,AFOGADOS,AFOGADOS,rua santa vitória 27,Alagamentos,0,-8.0845036,-34.9132087,0.0,1
8072282922,2022-06-27,15:37,SRA SOLICITA VISTORIA NA RESIDENCIA QUE ESTA ESTUFADA COM INFILTRAÇOES E AS PAREDES COM RISCO DE QUEDA,AFOGADOS,AFOGADOS,RUA ALEXANDRE RODRIGUES FERREIRA N151,Imoveis com Danos/Risco,0,-8.0804785,-34.9218262,0.0,1
8072937522,2022-06-28,15:11,USUÁRIA SOLICITA VISTORIA EM RESIDENCIA E INFORMA QUE ESTA COM VARIAS RACHADURAS E TETO CEDEU UM PEDACO.,AFOGADOS,AFOGADOS,RUA SANTA VITORIA N 385,Imoveis com Danos/Risco,0,-8.0845036,-34.9132087,0.0,1
8074423922,2022-06-30,15:38,"vistoria usuário solicita uma vistoria na residência dele, pois ele gostaria de saber se ele é possível ganhar o auxilio calamidade. pois com as fortes chuvas ele saiu do imóvel e quase perdeu tudo.",AFOGADOS,AFOGADOS,Carlos pena filho,Alagamentos,0,-8.0842305,-34.9175615,0.0,1
8074275022,2022-06-30,13:11,SOLICITA VISTORIA EM SUA CASA QUE FOI ATINGIDA PELA ULTIMA ENCHENTE. CASA ENCONTRA/SE COM RACHADURAS PARTE DO TETO DA COZINHA DESPENCOU. PEDEU ALGUNS MOVEIS NO LOCAL.,AFOGADOS,AFOGADOS,RUA SANTA VITORIA 50,Imoveis Alagados,0,-8.0843331,-34.9123633,0.0,1
8066902922,2022-06-13,12:46,SR SOLICITA VISTORIA NO MURO DA CAFEPETINHO QUE ESTA COM RISCO DE QUEDA,AFOGADOS,AFOGADOS,RUA VINTE E UM DE ABRIL SN,Muro com Danos,0,-8.077561,-34.90769,0.0,1
8063475222,2022-06-07,12:28,"USUÁRIO INFORMA QUE O TETO DE SUA CASA CAIU, VERIFICAR ESTRUTURA DA CASA SE HÁ CONDIÇÕES DE MORADIA",AFOGADOS,AFOGADOS,RUA COTUNGUBA N 189,Desabamento Parcial Imoveis,0,-8.0690397,-34.9075636,0.0,1
8071124022,2022-06-22,14:28,SOLICITA CANCELAMENTO DO PROTOCOLO: 8054746722 REFERENTE A VISTORIA,AFOGADOS,AFOGADOS,"rua coronel alfredo duarte, 402",Arvores em Risco,0,-8.0703812,-34.9112484,0.0,1
8068580922,2022-06-16,10:05,"INFORMA RACHADURAS NA CASA, SOLICITA VISTORIA.",AFOGADOS,AFOGADOS,"TRV SANTA HELENA, 40",Imoveis com Danos/Risco,0,-8.0847943,-34.9145237,0.0,1
8067655522,2022-06-14,16:00,USUARIO SOLICITA VISTORIA NA RESIDENCIA QUE FOI AFETADA PELAS CHUVAS,AFOGADOS,AFOGADOS,RUA DO ROSARIO N289,Imoveis com Danos/Risco,0,-8.0814222,-34.9101581,0.0,1
8071749022,2022-06-24,21:25,informa que telhado da residencia caiu,AFOGADOS,AFOGADOS,"rua vinte e um de abril, 111",Desabamento Parcial Imoveis,0,-8.077561,-34.90769,0.0,1
8052581022,2022-05-25,02:53,"A SOLICITANTE INFORMA QUE SUA CASA ESTA TOTALMENTE ALAGADA,FAVOR VERIFICAR COM URGENCIA.A MESMA INFORMA QUE LÁ FUNCIONA COMO ABRIGO PARA PESSOAS COM NECESSIDADES ESPECIAIS.",AFOGADOS,AFOGADOS,"RUA DANIEL ANTONIO RODRIGUES, N 224",Imoveis Alagados,0,-8.0828279,-34.9206044,0.0,1
8054746722,2022-05-26,18:38,"ususario informa que em sua residencia tem um pe grande de jambo, area nao é de barreirainforma que caiu parte do tronco (partiu no meio) essa parte que caiu, foi pra sua residencia, o mesmo pede que abra solicitacao pois informa que na visao dele em caso de queda da outra parte, pode cair por cima de pessoas passando, carro, entre outrosa parte que caiu pra sua residencia, nao gerou nenhum dano",AFOGADOS,AFOGADOS,"rua coronel alfredo duarte, 402",Arvores em Risco,0,-8.0703812,-34.9112484,0.0,1
8025326322,2022-03-16,08:15,"solicita vistoria no apartamento, informa que existe vazamento vindo dos apartamentos de cima",AFOGADOS,AFOGADOS,"rua carlos pena filho, 116",Imoveis com Danos/Risco,0,-8.0842305,-34.9175615,0.0,1
8010512022,2022-02-02,14:29,SOLICITA VISTORIA EM UM IMÓVEL COM O TELHADO COM RISCO DE QUEDA  E INFORMA QUE JÁ DEMOLIRAM IRREGULARMENTE O IMÓVEL,AFOGADOS,AFOGADOS,RUA VINTE E UM DE ABRIL 22,Imoveis com Danos/Risco,0,-8.077561,-34.90769,0.0,1
8102752021,2021-11-19,12:10,"USUÁRIA SOLICITA VISTORIA, INFORMA QUE ELA É DONA DE UMA ANTIGA CASA DE SHOW (1º ANDAR) QUE  ESTAVA  ALUGADA E O INQUILINO FEZ UMA REFORMA IRREGULAR  NO TÉRREO, MAS QUE SÓ É POSSÍVEL VISUALIZAR  DO 1ª ANDAR, E ESTÁ OFERECENDO ALTO RISCO DE MORTE.OBS: É NECESSÁRIO ENTRAR EM CONTATO COM A SOLICITANTE OU MANDAR ALGUMA MENSAGEM, POIS O LOCAL ESTÁ FECHADO.",AFOGADOS,AFOGADOS,"RUA ALEXANDRE SELVA, N 300 A",Imoveis com Danos/Risco,0,-8.0768958,-34.916043,0.0,1
8102740121,2021-11-19,11:46,"Usuária solicita vistoria em residência, primeiro andar, que teve uma construção irregular que esta com risco.",AFOGADOS,AFOGADOS,"Rua Vinte e um de Abril, n955",Imoveis com Danos/Risco,0,-8.077561,-34.90769,0.0,1
8101199521,2021-11-16,14:53,"SOLICITA VISTORIA POIS MURO ESTA COM RISCO DE QUEDA ,MURO TEM MAIS OU MENOS 1,90  E ESTA TODO RACHADO",AFOGADOS,AFOGADOS,RUA AUGUSTO CALHEIROS SN,Muro com Danos,0,-8.0801419,-34.9094964,0.0,1
8062519821,2021-07-15,22:18,"USUÁRIA INFORMA QUE O IRMÃO RETIROU UM PAINEL SOLAR QUE ESTAVA INSTALADO NA LAJE DELA ESTÁ INFILTRANDO E ALGUNS BLOCOS ESTÃO CAINDO, ELA SOLICITA UMA VISTORIA.",AFOGADOS,AFOGADOS,JUREMA N136,Imoveis com Danos/Risco,0,-8.0747978,-34.9135998,0.0,1
8053014421,2021-06-14,11:36,"USUÁRIO SOLICITA VISTORIA, INFORMA QUE A COLUNA DE SUA CASA ESTÁ RACHADA, ACREDITA QUE POR CONTA DE UMA GRANDE ARVORE EM FRENTE A SUA CASA.",AFOGADOS,AFOGADOS,"RUA DR ADELINO, N 113",Imoveis com Danos/Risco,0,-8.075886,-34.9084528,0.0,1
8044468621,2021-05-15,14:47,TETO DO SUPERMERCADO SOBERANO DESABOU ESTÁ ESTALANDO E CHEIO DE RACHADURAS. ESTÃO TENTANDO FAZER REPAROS COM GESSO NO LOCAL.,AFOGADOS,AFOGADOS,ESTRADA DOS REMEDIOS 105,Desabamento Parcial Imoveis,0,-8.0792704,-34.9069178,0.0,1
8031078021,2021-04-11,20:44,imovel em risco devido a alagamento (casa)entrou agua na residencia,AFOGADOS,AFOGADOS,"porto uniao, 2",Imoveis com Danos/Risco,0,-8.0823662,-34.9112067,0.0,1
8031078021,2021-04-11,20:44,imovel em risco devido a alagamento (casa)entrou agua na residencia,AFOGADOS,AFOGADOS,"porto uniao, 2",Alagamentos,0,-8.0823662,-34.9112067,0.0,1
8031078021,2021-04-11,20:44,imovel em risco devido a alagamento (casa)entrou agua na residencia,AFOGADOS,AFOGADOS,"porto uniao, 2",Imoveis Alagados,0,-8.0823662,-34.9112067,0.0,1
8031127021,2021-04-12,00:54,USUÁRIO INFORMA QUE CANAL TRANSBORDOU E INVADIU AS CASAS E SOLICITA VERIFICAÇÃO DA EQUIPE.,AFOGADOS,AFOGADOS,RUA COSME VIANA SN,Alagamentos,0,-8.0759805,-34.9090988,0.0,1
8025176321,2021-03-21,18:25,"USUÁRIO INFORMA QUE A LAJE DE UM PRÉDIO ABANDONADO DE PRIMEIRO ANDAR CAIU, E ESTÁ EM RISCO DE QUEDA TOTAL, ESSE PRÉDIO FICA AO LADO DA CAIXA ECONÔMICA ONDE TEM A CIRCULAÇÃO DE VÁRIAS PESSOAS, SOLICITA UMA VISTORIA URGENTE.",AFOGADOS,AFOGADOS,RUA DA PAZ N 215,Desabamento Parcial Imoveis,0,-8.0798375,-34.9046501,0.0,1
8000712921,2021-01-05,23:19,"O USUARIO INFORMA QUE O TETO DO PRIMEIRO ANDAR DO PREDIO DESABOU,FAVOR VERIFICAR COM URGENCIA.",AFOGADOS,AFOGADOS,"RUA SAO MIGUEL, N 455",Desabamento Parcial Imoveis,0,-8.0804106,-34.9108311,0.0,1
8003799821,2021-01-18,14:44,"USUÁRIA SOLICITA VISTORIA EM SUA RESIDÊNCIA, POIS ESTA APRESENTANDO VARIAS RACHADURAS, A MESMA TEME QUE TENHA RISCO DE DESABAR.",AFOGADOS,AFOGADOS,"RUA TURIAÇU, N140",Imoveis com Danos/Risco,0,-8.0828777,-34.9165223,0.0,1
8077745020,2020-11-05,10:04,"USUÁRIA INFORMA QUE  SUA  CASA TEM 1° ANDAR QUE AGORA ESTÃO CONSTRUINDO OUTRA CASA CIMA , E AGORA SUA CASA ESTA APRESENTADO MUITAS  RACHADURAS PELA CASA , CAINDO RESTO DE REBOCO E AGORA A MESMA NESSE MOMENTO ESTA ESTA NA RUA COM MEDO QUE VENHA DESABAR. PEDE URGÊNCIA DA EQUIPE NO LOCAL..",AFOGADOS,AFOGADOS,RUA ERNESTO CAVALCANTI N 46,Desabamento Parcial Imoveis,0,-8.074347,-34.9117383,0.0,1
8062560020,2020-09-02,09:30,"USUÁRIA ALERTA SOBRE ÁRVORE DE VIZINHO QUE APARENTA ESTAR MORRENDO, OFERECENDO RISCO DE QUEDA EM SUA CASA E CASA DO VIZINHO.",AFOGADOS,AFOGADOS,"CARVALHO DE MENDONÇA, 202",Arvores em Risco,0,-8.0786578,-34.9128323,0.0,1
8053757920,2020-07-23,14:36,SOLICITA VISTORIA EM SUA RESIDENCIA POIS O MESMO INFORMA QUE QUANDO PASSA VEÍCULOS PESADOS A ESTRUTURA DE SUA RESIDENCIA TREME A CASA INCLUSIVE ESTÁ COM UMA RACHADURA AO MEIO. DEVIDO AS VIBRAÇÕES.,AFOGADOS,AFOGADOS,RUA GENERAL CARLOS LIRA N108,Imoveis com Danos/Risco,0,-8.0784149,-34.9099175,0.0,1
8047225920,2020-06-16,23:50,USUÁRIO INFORMA QUER DEVIDO A RAIZ DE UMA ÁRVORE O MURO ESTÁ COM RISCO DE CAIR COM RACHADURA E INCLINADO.,AFOGADOS,AFOGADOS,RUA FRANCISCO SILVEIRA 51,Muro com Danos,0,-8.0829875,-34.9043109,0.0,1
8038355020,2020-04-16,14:31,USUÁRIA INFORMA QUE O VIZINHO ESTÁ REALIZANDO UMA CONSTRUÇÃO IRREGULAR NO PRÉDIO QUE ESTÁ ABALANDO A ESTRUTURA,AFOGADOS,AFOGADOS,RUA FRANCISCO PORFIRIO,Imoveis com Danos/Risco,0,-8.0791593,-34.9116472,0.0,1
8150647619,2019-12-19,09:38,usuaria informa que ao lado da escola existi um casa que esta abandonada ha 10 anos e agora esta acontecendo uns estralos e ontem pela tarde houve um queda do telhado todo e as paredes estão rachadas.,AFOGADOS,AFOGADOS,RUA DR  ADELINO n 289,Imoveis com Danos/Risco,0,-8.0757933,-34.9099321,0.0,1
8095738919,2019-08-02,13:08,USUÁRIO SOLICITA VISTORIA DE SUA RESIDENCIA QUE ESTÁ APRESENTANDO RACHADURAS.,AFOGADOS,AFOGADOS,"RUA BARÃO DE JAPARANÃ, N 23",Imoveis com Danos/Risco,0,-8.0845591,-34.9167877,0.0,1
8083201519,2019-07-03,12:30,USUÁRIA SOLICITA UMA VISTORIA NA RESIDENCIA AO LADO DA SUA POIS ACREDITA QUE A ESCADA FEITA POSSA PREJUDICAR E CAUSAR RISCOS. POR FAVOR VERIFICAR.,AFOGADOS,AFOGADOS,"RUA SANTO  CRISTO, N 406",Imoveis com Danos/Risco,0,-8.0820522,-34.9134524,0.0,1
8089930919,2019-07-23,11:32,USUÁRIO INFORMA QUE A ÁRVORE ESTÁ TOMBANDO E IRÁ CAIR SOBRE A ESCOLA.ÁRVORE ESTÁ PODRE E PODE CAIR A QUALQUER MOMENTO.OFÍCIO ENVIADO PARA O CORPO DE BOMBEIROS / 01/19.,AFOGADOS,AFOGADOS,"RUA JOSÉ MIRANDA, 156",Arvores em Risco,0,-8.074958,-34.9102016,0.0,1
8089930919,2019-07-23,11:32,USUÁRIO INFORMA QUE A ÁRVORE ESTÁ TOMBANDO E IRÁ CAIR SOBRE A ESCOLA.ÁRVORE ESTÁ PODRE E PODE CAIR A QUALQUER MOMENTO.OFÍCIO ENVIADO PARA O CORPO DE BOMBEIROS / 01/19.,AFOGADOS,AFOGADOS,"RUA JOSÉ MIRANDA, 156",Imoveis com Danos/Risco,0,-8.074958,-34.9102016,0.0,1
8074994619,2019-06-13,17:08,usuária informa que o canal são pedro transbordou e alagou as casas.,AFOGADOS,AFOGADOS,rua dirceu borges,Transbordamentos de Canais,0,-8.0817744,-34.921281,0.0,1
8071861519,2019-06-06,16:04,"USUÁRIA SOLICITA VISTORIA ,INFORMA QUE O VIZINHO COLOCOU UMAS GRADES NA PAREDE QUE  ESTÃO MUITO PESADAS E FORÇANDO A PAREDE DE SUA RESIDENCIA OFERECENDO RISCO DE DESABAMENTO. PEDE URGÊNCIA .",AFOGADOS,AFOGADOS,"RUA ITATIUBA , N 51",Imoveis com Danos/Risco,0,-8.0776229,-34.9085457,0.0,1
8071695819,2019-06-06,12:56,"USUÁRIA SOLICITA UMA VISTORIA DE UM TERRENO , INFORMA QUE  AS PAREDES AO REDOR ESTÃO COM RISCO DE DESABAMENTO E OFERECENDO RISCO PARA AS RESIDENCIAS VIZINHAS.",AFOGADOS,AFOGADOS,"RUA ITATIUBA , N 51, 47",Imoveis com Danos/Risco,0,-8.0774136,-34.908727,0.0,1
8069515619,2019-06-03,19:58,"o usuario informa que esta havendo incendio no imovel da rua,favor verificar com urgencia.o mesmo pede auxilio da defesa civil.contt carla: 86737980",AFOGADOS,AFOGADOS,"RUA   BREJO DA MADRE DE DEUS, N 100",Incendios,0,-8.0648139,-34.9101574,0.0,1
8064565519,2019-05-25,18:01,"o usuario informa que o predio com 1 andar da rua está com rachaduras, infiltrações e a fachada danificada,favor verificar.o mesmo pede a vistoria do imovel.",AFOGADOS,AFOGADOS,"RUA   MOTOCOLOMBO, N 93",Imoveis com Danos/Risco,0,-8.081048,-34.9059643,0.0,1
8050034219,2019-05-02,10:39,"SOLICITA QUE SEJA FEITO VISTORIA EM SUA RESIDENCIA ONDE SÃO VARIAS CASAS DE ALUGUEL ,POIS  HA RACHADURA NO MURO DE ENTRADA DO PORTÃO NO QUARTO DOS FUNDOS E NA AREIA DE SERVIÇO AS PAREDES ESTÃO ÚMIDAS E SALIÊNCIA NO PISO E POR FORA DAS CADAS HÁ ALGUMAS VIGAS COM OS FERROS EXPOSTOS..",AFOGADOS,AFOGADOS,RUA APRÍGIO ALVES N 23,Imoveis com Danos/Risco,0,-8.0830176,-34.9108471,0.0,1
8060250019,2019-05-22,18:43,Soldado do corpo de bombeiros informa que o prédio desabou totalmente . na localidade ja tem óbitos confirmados e alguns estão nos escombros,AFOGADOS,AFOGADOS,"Rua da paz, sn",Desabamento Total Imoveis,0,-8.079779,-34.9047859,0.0,1
8045925019,2019-04-23,10:10,SR. SOLICITA A VISTORIA NA SUA CASA POIS A LAJEM DO VIZINHO ESTA ESCORADA COM VIGAS QUE SE DER UMA CHUVA PODE VIM A CAIR E ATINGIR SUA RESIDENCIA,AFOGADOS,AFOGADOS,RUA FIRMINO DE FIGUEIREDO N 186A,Desabamento Parcial Imoveis,0,-8.0747126,-34.9062563,0.0,1
8012302319,2019-02-01,16:54,"CORPO DE BOMBEIROS SOLICITA PRESENÇA DA EQUIPE DA DEFESA CIVIL, HOUVE UM INCÊNDIO NA  RESIDENCIA.",AFOGADOS,AFOGADOS,JOSÉ MIRANDA N 174,Incendios,0,-8.0756381,-34.9103635,0.0,1
8015390019,2019-02-07,16:25,"usuária informa que por conta das chuvas a casa esta com a estrutura com danos e gerando infiltrações e riscos de desabamento. a mesma informa que partes do imóvel, como cozinha e sala estão com esses danos",AFOGADOS,AFOGADOS,"rua luiz figueiroa , n 304",Imoveis com Danos/Risco,0,-8.0756806,-34.9171009,0.0,1
8016867519,2019-02-12,09:36,"POPULARES DERRUBARAM UMA PAREDE DA CASA QUE JA TINHA E AGORA ESTAO COLOCANDO LAJE, ESSA CASA FICA EM FRENTE A OFICINA 1848. A USUARIA INFORMA QUE TEM MEDO DE VIR A DESABAR SOBRE SUA CASA",AFOGADOS,AFOGADOS,"ESTRADA DOS REMEDIOS,1845",Imoveis com Danos/Risco,0,-8.0789699,-34.9068294,0.0,1
8018812319,2019-02-15,09:59,INFORMA QUE VIZINHA MORA EM CASA FEITA DE MADEIRAS E PLANTAS. ESTA COM RISCO DE CAIR EM CIMA DELA OU DE MORADORES VIZINHO. NAO EXISTE CONDICOES DE MORADIA NO LOCAL DEVIDA AO ESTADO DA MORADIA COMO DO TERRENO. HA BASTANTE LIXO TAMBEM NO LOCAL. JA FOI FEITO VARIAS DENUNCIAS E NINGUEM FOI NO LOCAL. VIZINHA E UMA IDOSA,AFOGADOS,AFOGADOS,RUA TURIACU    288,Imoveis com Danos/Risco,0,-8.0822807,-34.9132378,0.0,1
8009245219,2019-01-28,11:41,Usuário solicita Vistoria em imóvel que alagou o quintal e agua na rua estar na altura da cintura,AFOGADOS,AFOGADOS,Rua Ernesto Cavalcanti,Imoveis Alagados,0,-8.074347,-34.9117383,0.0,1
8072152018,2018-06-06,14:33,"USUÁRIO AFIRMA QUE A LAJE DA CASA DELE , APRESENTOU RACHADURAS COM RISCO DE CAIR .",AFOGADOS,AFOGADOS,RUA DA LUTA N  55,Imoveis com Danos/Risco,0,-8.0845569,-34.9159036,0.0,1
8081368118,2018-06-26,10:55,"O USUARIO QUE SOLICITA VISTORIA NO TELHADO DO BLOCO MATUTAS DE SAO JOSE, POIS ESTÁ SOUTO OS TELHADOS.O MESMO PEDE A AJUDA DO SEDEC.",AFOGADOS,AFOGADOS,"RUA   CABEDELO, N 60",Imoveis com Danos/Risco,0,-8.0761379,-34.9109265,0.0,1
8082880818,2018-06-29,09:56,"USUÁRIO INFORMA QUE ACABOU DE SAIR DA DEFESA CIVIL E GEISE DISSE QUE TERIA QUE LIGAR PARA SOLICITAR AQUI NA CENTRAL, UMA CONSTRUÇÃO IRREGULAR EM ÁREA PLANA COM BASTANTE RISCO E CASAS AO LADO. FAVOR VERIFICAR.",AFOGADOS,AFOGADOS,RUA MARIA JOSE DE LIMA N 42 44,Imoveis com Danos/Risco,0,-8.0680203,-34.9139607,0.0,1
8059952618,2018-05-08,11:02,"DESEJA DENUNCIAR PRÉDIO COM RACHADURAS NAS PAREDES ,INFILTRAÇÃO ,O PISO ESTA QUASE INEXISTENTE .TRABALHAM COM ELETRICIDADE .ESSE PRÉDIO JÁ FOI  INTERDITADO POR ENGENHEIRO POREM CONTINUA FUNCIONANDO EM SITUAÇÃO DE RISCO .",AFOGADOS,AFOGADOS,RUA SÃO MIGUEL 485,Imoveis com Danos/Risco,0,-8.0804125,-34.9110539,0.0,1
8058623918,2018-05-04,13:59,"USUÁRIA SOLICITA VISTORIA NO IMÓVEL , POIS APRESENTA RACHADURAS NAS VIGAS E ESCUTOU ESTALOS.",AFOGADOS,AFOGADOS,RUA VINTE E UM DE ABRIL,Imoveis com Danos/Risco,0,-8.077561,-34.90769,0.0,1
8044511921,2021-05-16,16:10,"USUÁRIO SOLICITA UMA VISTORIA, ELE INFORMA QUE ALGUMAS PASTILHAS DO EDIFÍCIO ESTÃO CAINDO NA RUA E SOLICITA UMA VISTORIA.",AFLITOS,AFLITOS,AMAPÁ N 51,Imoveis com Danos/Risco,0,-8.0397788,-34.8938735,0.0,1
8044307221,2021-05-14,18:25,"USUÁRIA SOLICITA UMA VISTORIA, ELA INFORMA QUE DEVIDO AS ULTIMAS CHUVAS A GARAGEM DO PRÉDIO ALAGOU, ELA INFORMA QUE A ÁGUA CHEGOU NOS ELEVADORES , DEIXANDO ASSIM OS MORADORES ILHADOS, SOLICITA UMA VISTORIA.",AFLITOS,AFLITOS,AVENIDA CONSELHEIRO ROSA E SILVA N295,Imoveis Alagados,0,-8.0416438,-34.8980743,0.0,1
8058937321,2021-07-05,15:24,USUÁRIO INFORMA QUE PREDIO ESTA COM RACHADURAS E FERRAGENS EXPOSTAS.,AFLITOS,AFLITOS,AV ROSA E SILVA N 1286,Imoveis com Danos/Risco,0,-8.0416438,-34.8980743,0.0,1
8009541022,2022-01-31,16:03,"USUÁRIO SOLICITA VISTORIA DE UM EDIFÍCIO , INFORMA QUE ESTÃO MUDANDO A FAIXADA DE FORMA IRREGULAR, COLOCANDO EM RISCO A VIDA DAS PESSOAS QUE PASSAM NO LOCAL/ MORADORES DA COBERTURA COLOCARAM AR/CONDICIONADO QUE PODEM CAIR, AS PEDRAS DA FAIXADA ESTÃO CAINDO E O CONDOMÍNIO NÃO ESTÁ TOMANDO AS PROVIDÊNCIAS CABÍVEIS.",AFLITOS,AFLITOS,"RUA LUIZ RODOLFO DE ARAÚJO, N 81",Imoveis com Danos/Risco,0,-8.0388002,-34.8982087,0.0,1
8021539222,2022-03-06,20:41,USUÁRIA INFORMA QUE A MARQUISE DO LOCAL ESTA COM DANOS E COM UMA POSSÍVEL QUEDA!,AFLITOS,AFLITOS,"JOÃO DE BARROS N, 02",Imoveis com Danos/Risco,0,-8.0384971,-34.891981,0.0,1
8016703015,2015-06-09,08:14,USUÁRIA SOLICITA VISTORIA NO MURO DE ARRIMO QUE ESTÁ SOLTO COM RISCO DE DESLIZAMENTO. URGENTE.,ALTO JOSE DO PINHO,ALTO JOSE DO PINHO,RUA ESTRELIANA  N. 89,Muro com Danos,0,-8.0212968,-34.9081116,0.0,1
